gid,dep_name,country,state,latitude,longitude,commodity,dep_type,type_detail,model_code,model_name,metallic,citation
1,Obatu-Shela,Afghanistan,,32,66.2833,Aluminum,Surficial,,,,,"Orris and Bliss, 2002"
2,Hagigak,Afghanistan,,34.6778,68.0625,Barite,Hydrothermal,,,,,"Orris and Bliss, 2002"
3,Darrahe-Nur,Afghanistan,,34.6611,70.5417,"Beryllium-niobium,tin",Igneous,,,,,"Orris and Bliss, 2002"
4,Loghar,Afghanistan,,34.167,68.033,Chromium,Igneous,,,,,"Orris and Bliss, 2002"
5,Aynak,Afghanistan,,34.266,69.301,Copper,Sedimentary,,,,,"ESCAP, 1996"
6,Kundalyan,Afghanistan,,32.3128,66.5328,Copper-molybdenum-gold,Hydrothermal,,,,,"Orris and Bliss, 2002"
7,Darkhenj,Afghanistan,,35.4139,69.7583,Emerald,Gemstone,,,,,"Orris and Bliss, 2002"
8,Samty,Afghanistan,,37.584,69.859,Gold,Surficial,,,,,"Orris and Bliss, 2002"
9,Hajigak,Afghanistan,,34.6667,68.0667,Iron,Unclassified,,,,,"Orris and Bliss, 2002"
10,Kulam deposit,Afghanistan,,35.2019,70.3344,Kunzite,Igneous,,,,,"Orris and Bliss, 2002"
11,Sary Sang,Afghanistan,,36.1667,70.8167,Lapis Lazuli,Gemstone,,,,,"Orris and Bliss, 2002"
12,Pasghushta,Afghanistan,,35.3928,71.0144,Lithium-tantalum,Igneous,,,,,"Orris and Bliss, 2002"
13,Achin,Afghanistan,,34.05,70.7167,Magnesite-talc,Igneous,,,,,"Orris and Bliss, 2002"
14,Khanneshin,Afghanistan,,30.0333,63.5833,Phosphorous-rare earths,Igneous,,,,,"Orris and Bliss, 2002"
15,Jegdalek,Afghanistan,,34.4333,69.8167,Ruby,Gemstone,,,,,"Orris and Bliss, 2002"
16,Nilaw-Kolum,Afghanistan,,35.2083,70.3539,Tourmaline,Gemstone,,,,,"Orris and Bliss, 2002"
17,Gove,Australia,,-12.3,136.75,Aluminum,Surficial,,,,,"Loughnan and Sadleir, 1984"
18,Mitchel Plateau,Australia,,-15.2167,125.9333,Aluminum,Surficial,,,,,"Loughnan and Sadleir,1984"
19,Mount Saddleback,Australia,,-32.9333,116.1,Aluminum,Surficial,,,,,"Loughnan and Sadleir, 1984"
20,Weipa,Australia,,-12.6667,141.9167,Aluminum,Surficial,,,,,"Loughnan and Sadleir, 1984"
21,Gurrunda,Australia,,-34.684,149.483,Barite,Sedimentary,,,,,"GSA, OZMIN"
22,Arumpo,Australia,,-33.75,142.8333,Clay (bentonite),Sedimentary,,,,,"Lishmund and others, 1999"
23,Gurumundi,Australia,,-26.4333,149.8833,Clay (bentonite),Unclassified,,,,,"Cooper and others, 1996"
24,Cape York,Australia,,-12.6833,141.8667,Clay (kaolin),Surficial,,,,,"Driessen, 1990"
25,Skarndon River,Australia,,-11.7333,142.05,Clay (kaolin),Surficial,,,,,"Cooper and others, 1996"
26,Mount Lyell,Australia,,-42.1167,145.55,Copper,Hydrothermal,,,,,"Hughes, 1990"
27,Cadia Hill/Ridgeway,Australia,,-33.4667,149,Copper-gold,Hydrothermal,,,,,"Singer and others, 2002"
28,Endeavour,Australia,,-32.9167,148.0333,Copper-gold,Hydrothermal,,,,,"Singer and others, 2002"
29,Coppin Gap,Australia,,-20.8833,120.1,Copper-molybdenum,Hydrothermal,,,,,"Singer and others, 2002"
30,Olympic Dam,Australia,,-30.45,136.8833,"Copper-uranium,lead",Unclassified,,,,,"Hughes, 1990"
31,Mount Isa,Australia,,-20.7,139.3,Copper-zinc-lead-silver,Sedimentary,,,,,"Hughes, 1990"
32,Argyle,Australia,,-16.7144,128.3839,Diamond,Igneous,,,,,"Hughes, 1990"
33,Merlin,Australia,,-16.8508,136.3451,Diamond,Igneous,,,,,"GSA, OZMIN"
34,Kalgoorlie,Australia,,-30.75,121.5333,Gold,Hydrothermal,,,,,"Hughes, 1990"
35,Palmer River,Australia,,-15.8816,143.4654,Gold,Surficial,,,,,"GSA, OZMIN"
36,Lake Macleod,Australia,,-24.1667,113.6333,Halite-gypsum,Sedimentary,,,,,"Industrial Minerals, 1996"
37,Iron Range,Australia,,-12.7157,143.2967,Iron,Sedimentary,,,,,"GSA, OZMIN"
38,Koolanooka,Australia,,-29.217,116.233,Iron,Sedimentary,,,,,"GSA, OZMIN"
39,Middleback Range,Australia,,-33.05,137.15,Iron,Sedimentary,,,,,"GSA, OZMIN"
40,Mt Whaleback,Australia,,-23.3623,119.6846,Iron,Sedimentary,,,,,"GSA, OZMIN"
41,Mt. Newman,Australia,,-23.383,119.666,Iron,Sedimentary,,,,,"GSA, OZMIN"
42,Hilton,Australia,,-20.55,139.2833,Lead-zinc-silver,Hydrothermal,,,,,"Hughes, 1990"
43,McArthur River,Australia,,-16.5,136.0833,Lead-zinc-silver,Hydrothermal,,,,,"Hughes, 1990"
44,Greenbushes,Australia,,-33.8594,116.0653,Lithium,Igneous,,,,,"Driessen, 1990"
45,Kunwarara,Australia,,-22.9167,150.2167,Magnesite,Sedimentary,,,,,"Driessen, 1990"
46,Agnew/Leinster,Australia,,-27.4667,120.7,Nickel-copper,Igneous,,,,,"Hughes, 1990"
47,Kambalda,Australia,,-31.2,121.67,Nickel-copper,Igneous,,,,,"Hughes, 1990"
48,Mt Keith,Australia,,-27.7167,120.5333,Nickel-copper,Igneous,,,,,"Hughes, 1990"
49,Greenvale,Australia,,-18.9167,144.9833,Nickel-copper-cobalt,Surficial,,,,,"Hughes, 1990"
50,Coober Pedy,Australia,,-28.8333,134.75,Opal,Gemstone,,,,,"Keeling and others, 1990"
51,Christmas Island,Australia,,-10.4219,105.7158,Phosphorous,Surficial,,,,,"Barret, 1989"
52,Georgina Basin,Australia,,-21.8833,139.9667,Phosphorous,Sedimentary,,,,,"Industrial Minerals, 1998"
53,Lady Annie,Australia,,-19.76,139.112,Phosphorous,Sedimentary,,,,,"GSA, OZMIN"
54,Mount Weld,Australia,,-28.8667,122.5333,Phosphorous-rare earths,Igneous,,,,,"Pell, 1996"
55,Cape Flattery,Australia,,-14.9333,145.25,Silica sand,Surficial,,,,,"Cooper and others, 1996"
56,Three Springs,Australia,,-29.5047,115.8609,"Talc, asbestos",Unclassified,,,,,"Sims, 1997"
57,Bayfield,Australia,,-22.8,150.7667,Titanium-zirconium-REE,Surficial,,,,,"Jackson and Christiansen, 1993"
58,Cataby,Australia,,-30.7167,115.5167,Titanium-zirconium-REE,Surficial,,,,,"Jackson and Christiansen, 1993"
59,Chetwynd,Australia,,-37.2167,141.4167,Titanium-zirconium-REE,Surficial,,,,,"Komesaroff, 2001"
60,Coojarloo,Australia,,-30.6667,115.3333,Titanium-zirconium-REE,Surficial,,,,,"ESCAP and ABMRGG, 1988"
61,Eneabba,Australia,,-29.9,115.2667,Titanium-zirconium-REE,Surficial,,,,,"Hughes, 1990"
62,Frazer Island,Australia,,-24.6667,153.25,Titanium-zirconium-REE,Surficial,,,,,"Hughes, 1990"
63,Ginko,Australia,,-33.3833,142.15,Titanium-zirconium-REE,Surficial,,,,,"Komesaroff, 2001"
64,Mindarie,Australia,,-34.8167,140.2167,Titanium-zirconium-REE,Surficial,,,,,"Komesaroff, 2001"
65,North Stradbroke Island,Australia,,-27.5833,153.45,Titanium-zirconium-REE,Surficial,,,,,"Towner, 1992"
66,Stradbroke Island,Australia,,-27.5,153.9,Titanium-zirconium-REE,Surficial,,,,,"Hughes, 1990"
67,WIM 150,Australia,,-36.7167,142.2167,Titanium-zirconium-REE,Surficial,,,,,"Hughes, 1990"
68,Jabiluka,Australia,,-12.502,132.8957,Uranium-gold,Sedimentary,,,,,"GSA, OZMIN"
69,Rosebery,Australia,,-41.8167,145.5,Zinc-copper-lead-sulfur,Hydrothermal,,,,,"Hughes, 1990"
70,Century,Australia,,-18.741,138.625,Zinc-lead,Hydrothermal,,,,,"GSA, OZMIN"
71,Broken Hill,Australia,,-32,141.45,Zinc-lead-silver,Hydrothermal,,,,,"Hughes, 1990"
72,Cannington,Australia,,-21.8692,140.9194,Zinc-lead-silver,Hydrothermal,,,,,"GSA, OZMIN"
73,Elura,Australia,,-31.3333,145.8333,Zinc-lead-silver,Hydrothermal,,,,,"Hughes, 1990"
74,Moiskal Island,Bangladesh,,21.3333,91.9167,Titanium-zirconium-REE,Surficial,,,,,"McFaul and others, 2002"
75,Khepchishi Hill,Bhutan,,27.3833,89.3333,Graphite,Sedimentary,,,,,"ESCAP, 1991"
76,Khothakpa,Bhutan,,27.0167,91.4,Gypsum,Sedimentary,,,,,"ESCAP, 1991"
77,Monywa,Burma,,22.25,95.0833,Copper-silver-gold,Hydrothermal,,,,,"Singer and others, 2002"
78,Hwehka,Burma,,25.4842,96.2786,Jade,Gemstone,,,,,"ESCAP, 1995"
79,Kansi,Burma,,25.7836,96.3717,Jade,Gemstone,,,,,"ESCAP, 1995"
80,Tawmaw,Burma,,25.7036,96.2578,Jade,Gemstone,,,,,"ESCAP, 1995"
81,Bawdwin,Burma,,23.1167,97.35,Lead-zinc-nickel-cobalt,Hydrothermal,,,,,"Kamitani and Naito, 1998"
82,Mwaytung,Burma,,23.5,94,Nickel-copper-cobalt,Surficial,,,,,"Schellman, 1989"
83,Heinde,Burma,,14.1167,98.45,Tin,Igneous,,,,,"Kamitani and Naito, 1998"
84,Haute Chhlong,Cambodia,,12.383,107.2,Aluminum,Surficial,,,,,"ESCAP, 1993"
85,Pailin-Samlot,Cambodia,,12.833,102.6,Corundum,Gemstone,,,,,"ESCAP, 1993"
86,Phnom Deck,Cambodia,,13.233,105.05,Iron,Metamorphic,,,,,"ESCAP, 1993"
87,Pailin,Cambodia,,12.8333,102.6,Sapphire,Gemstone,,,,,"ESCAP, 1993a"
88,Bokeo,Cambodia,,12.6667,107.1667,Zircon,Gemstone,,,,,"ESCAP, 1993a"
89,Baiquan/Qianmuping,China,,37.8667,113.5333,Aluminum,Surficial,,,,,"Kamitani and Naito, 1998"
90,"Duchun, Xiaoyi",China,,37.3222,111.5028,Aluminum,Surficial,,,,,"Ariunbileg and others, 2003"
91,Guopanliang,China,,38.7528,111.1708,Aluminum,Surficial,,,,,"Ariunbileg and others, 2003"
92,Ke\'er,China,,37.3361,111.4889,Aluminum,Surficial,,,,,"Ariunbileg and others, 2003"
93,Re\'er,China,,37.3361,111.4889,Aluminum,Surficial,,,,,"Ariunbileg and others, 2003"
94,Shuiquliu,China,,44.55,127.0667,Aluminum,Surficial,,,,,"Wen Lu, 1998"
95,Taihushi,China,,37.8667,113.5667,Aluminum,Surficial,,,,,"Wen Lu, 1998"
96,"Xihedi, Xiaoyi",China,,37.3361,111.4861,Aluminum,Surficial,,,,,"Ariunbileg and others, 2003"
97,Dongfenggou,China,,32.9833,104.6667,Barite,Sedimentary,,,,,"Wen Lu, 1998"
98,Gongxi,China,,27.1167,109.1667,Barite,Sedimentary,,,,,"Wen Lu, 1998"
99,Lifang,China,,27.3833,117.1333,Barite,Sedimentary,,,,,"Wen Lu, 1998"
100,Pancun,China,,23.9667,109.6833,Barite,Hydrothermal,,,,,"Wen Lu, 1998"
101,Keketuohai,China,,47.2067,89.815,Beryllium-tantalum,Igneous,,,,,"Ariunbileg and others, 2003"
102,Wengquangou,China,,40.7,124.05,Boron,Sedimentary,,,,,"Ariunbileg and others, 2003"
103,Qaidam Qarhan,China,,37.5,95,Boron-lithium-potassium,Sedimentary,,,,,"Wen Lu, 1998"
104,Hebuksaler,China,,46.7833,85.7167,Clay (bentonite),Unclassified,,,,,"Industrial Minerals, 1990b"
105,Kerjian,China,,42.7833,88.6333,Clay (bentonite),Sedimentary,,,,,"Wen Lu, 1998"
106,Ningming,China,,22.1333,107.0667,Clay (bentonite),Sedimentary,,,,,"Wen Lu, 1998"
107,Pingshan,China,,28.9333,118.9833,Clay (bentonite),Sedimentary,,,,,"Wen Lu, 1998"
108,Xingsheng,China,,38.5167,111.0667,Clay (bentonite),Unclassified,,,,,"Industrial Minerals, 1990a"
109,Yangxian,China,,33.2167,107.5333,Clay (bentonite),Sedimentary,,,,,"Wen Lu, 1998"
110,Donggongxia,China,,25.1,117.0167,Clay (kaolin),Surficial,,,,,"Wen Lu, 1998"
111,Maoming,China,,21.9167,110.8667,Clay (kaolin),Surficial,,,,,"Yao Shaode, 1995"
112,Xuzhou,China,,34.2667,117.1833,"coal, clay",Sedimentary,,,,,"Industrial Minerals, 1990b"
113,Bainaimiao,China,,42.3,112.7833,Copper,Hydrothermal,,,,,"Ariunbileg and others, 2003"
114,DaTongChang,China,,30.6667,105.0667,Copper,Sedimentary,,,,,"Cox and others, 2003"
115,Disue-1,China,,41.3333,81.25,Copper,Sedimentary,,,,,"Cox and others, 2003"
116,Dongchuan area,China,,23.5,103,Copper,Sedimentary,,,,,"Ariunbileg and others, 2003"
117,FengShan,China,,24.15,102.1667,Copper,Sedimentary,,,,,"Cox and others, 2003"
118,JiuquiWan,China,,26.25,113.0833,Copper,Sedimentary,,,,,"Cox and others, 2003"
119,LaoQingShan,China,,23.05,103.9167,Copper,Sedimentary,,,,,"Kirkham and others, 1994"
120,LaoXue,China,,26.2833,102.3333,Copper,Sedimentary,,,,,"Cox and others, 2003"
121,OmeiHsien,China,,29.2833,106.2,Copper,Sedimentary,,,,,"Cox and others, 2003"
122,ShiShan,China,,24.1167,102.1667,Copper,Sedimentary,,,,,"Cox and others, 2003"
123,TangDan,China,,26.25,102.6667,Copper,Sedimentary,,,,,"Cox and others, 2003"
124,Tongquanshan,China,,30.9333,117.7833,Copper,Metamorphic,,,,,"Metals Economics Group, 1995"
125,YinMin,China,,26.3167,102.3333,Copper,Sedimentary,,,,,"Cox and others, 2003"
126,Lalachang,China,,26.1,101.9,Copper-gold-silver,Sedimentary,,,,,"Cox and others, 2003"
127,Yongping,China,,28.2167,117.8,Copper-gold-silver,Sedimentary,,,,,"Cox and others, 2003"
128,Tianbaoshan,China,,42.9167,129.9839,Copper-lead-zinc,Metamorphic,,,,,"Ariunbileg and others, 2003"
129,Aselei/Ashele,China,,48.2833,86.4667,Copper-lead-zinc-silver,Sedimentary,,,,,"Kamitani and Naito, 1998"
130,Yinshan,China,,28.85,117.4833,Copper-lead-zinc-silver,Hydrothermal,,,,,"Kamitani and Naito, 1998"
131,Duoxiasonduo,China,,31.15,97.8833,Copper-molybdenum,Hydrothermal,,,,,"Singer and others, 2002"
132,Malasongduo,China,,31.1667,98.15,Copper-molybdenum,Hydrothermal,,,,,"Singer and others, 2002"
133,Tongkuangyu,China,,35.5,111.7,Copper-molybdenum,Hydrothermal,,,,,"Singer and others, 2002"
134,Wunugetushan,China,,49.3928,117.4333,Copper-molybdenum,Hydrothermal,,,,,"Singer and others, 2002"
135,Yulong,China,,31.6333,97.9167,Copper-molybdenum,Hydrothermal,,,,,"Singer and others, 2002"
136,Chengmenshan,China,,28.6667,115.8333,Copper-molybdenum-gold,Hydrothermal,,,,,"Singer and others, 2002"
137,Dexing,China,,29.0167,117.5833,Copper-molybdenum-gold,Hydrothermal,,,,,"Singer and others, 2002"
138,Doubaoshan,China,,50.1833,125.6833,Copper-molybdenum-gold,Hydrothermal,,,,,"Singer and others, 2002"
139,Wushan,China,,29.75,115.68,Copper-molybdenum-gold,Metamorphic,,,,,"Metals Economics Group, 1995"
140,Kalatongke,China,,46.8083,89.8347,Copper-nickel,Igneous,,,,,"Ariunbileg and others, 2003"
141,Duobaoshan,China,,50.1833,125.6833,Copper-silver-gold,Hydrothermal,,,,,"Singer and others, 2002"
142,Zijinshan,China,,25.1,116.5,Copper-silver-gold,Hydrothermal,,,,,"Singer and others, 2002"
143,Toudaohe,China,,39.5,122.1667,Diamond,Surficial,,,,,"Ariunbileg and others, 2003"
144,Baguamiao,China,,33.9292,106.9472,Gold,Sedimentary,,,,,"Peters, 2002"
145,Dongping,China,,40.9361,115.6375,Gold,Igneous,,,,,"Ariunbileg and others, 2003"
146,Erdaogou,China,,42.0833,120.3472,Gold,Hydrothermal,,,,,"Ariunbileg and others, 2003"
147,Hanshan,China,,39.0833,96.475,Gold,Hydrothermal,,,,,"Ariunbileg and others, 2003"
148,Huanan,China,,46.3333,130.9167,Gold,Surficial,,,,,"Ariunbileg and others, 2003"
149,Huma,China,,50.0833,126.6667,Gold,Surficial,,,,,"Ariunbileg and others, 2003"
150,Jiaodong,China,,33.8833,106.65,Gold,Hydrothermal,,,,,"Kamitani and Naito, 1998"
151,Jiayin,China,,47.1667,130.5,Gold,Surficial,,,,,"Ariunbileg and others, 2003"
152,Jinchanggouliang,China,,42.1667,120.3,Gold,Igneous,,,,,"Metals Economics Group, 1995"
153,Laozhuoshan,China,,46.2667,131.5347,Gold,Igneous,,,,,"Ariunbileg and others, 2003"
154,Liba,China,,34.4167,105.0433,Gold,Sedimentary,,,,,"Peters, 2002"
155,Mohe,China,,52.6167,121.6667,Gold,Surficial,,,,,"Ariunbileg and others, 2003"
156,Paishanlou,China,,40.8056,121.9306,Gold,Hydrothermal,,,,,"Ariunbileg and others, 2003"
157,Getang,China,,25.1944,105.1583,Gold-antimony,Sedimentary,,,,,"Peters, 2002"
158,Lannigou,China,,25.35,105.69,Gold-arsenic-mercury,Sedimentary,,,,,"Peters, 2002"
159,Huangshilaoshan,China,,30.8972,117.8136,Gold-copper-lead,Metamorphic,,,,,"Peters, 2002"
160,Xinqiao,China,,30.9183,117.9767,Gold-copper-lead,Metamorphic,,,,,"Peters, 2002"
161,Banqi,China,,24.7344,105.6042,Gold-mercury,Sedimentary,,,,,"Peters, 2002"
162,Jilongshan,China,,33.5403,109,Gold-mercury,Sedimentary,,,,,"Peters, 2002"
163,Zimudang,China,,25.0506,105.46,Gold-mercury,Sedimentary,,,,,"Peters, 2002"
164,Dongbeizhai,China,,32.725,103.5569,Gold-silver,Sedimentary,,,,,"Peters, 2002"
165,Jiapigou,China,,42.9,127.3833,Gold-silver,Hydrothermal,,,,,"Ariunbileg and others, 2003"
166,Manaoke,China,,33.0503,104.0667,Gold-tungsten,Sedimentary,,,,,"Peters, 2002"
167,Laerma,China,,34.0011,102.5928,Gold-uranium,Sedimentary,,,,,"Peters, 2002"
168,Liumao,China,,45.0856,130.7847,Graphite,Metamorphic,,,,,"Ariunbileg and others, 2003"
169,Yunshan,China,,45.9167,132.4833,Graphite,Sedimentary,,,,,"Wen Lu, 1998"
170,Jintan,China,,31.75,119.5667,Halite,Sedimentary,,,,,"Industrial Minerals, 1990b"
171,Weixi,China,,30.2,106.65,Halite,Sedimentary,,,,,"Wen Lu, 1998"
172,Anshan/Hongai,China,,40.9833,123.3667,Iron,Sedimentary,,,,,"Kamitani and Naito, 1998"
173,Baizhiyan,China,,39.0861,113.7681,Iron,Sedimentary,,,,,"Ariunbileg and others, 2003"
174,"Baoguosi, Liaoning",China,,42.1042,120.8444,Iron,Sedimentary,,,,,"Ariunbileg and others, 2003"
175,Caiyuan,China,,40.05,118.55,Iron,Sedimentary,,,,,"Kamitani and Naito, 1998"
176,Fengjiayu,China,,40.6417,116.9681,Iron,Sedimentary,,,,,"Ariunbileg and others, 2003"
177,Jinling,China,,36.855,118.1181,Iron,Metamorphic,,,,,"Ariunbileg and others, 2003"
178,Laoniugou,China,,42.8792,127.4611,Iron,Sedimentary,,,,,"Ariunbileg and others, 2003"
179,Mengjiagou,China,,40.1667,118.5297,Iron,Sedimentary,,,,,"Ariunbileg and others, 2003"
180,Nanfen,China,,41.2278,124,Iron,Sedimentary,,,,,"Liu, 1990"
181,Pingxingguan,China,,39.3167,114.1194,Iron,Sedimentary,,,,,"Lin and Zhang, 1993"
182,Qidashan,China,,41.1389,123.3417,Iron,Sedimentary,,,,,"Ariunbileg and others, 2003"
183,Sanheming,China,,41.4333,110.95,Iron,Sedimentary,,,,,"Ariunbileg and others, 2003"
184,Shachang,China,,40.4278,117,Iron,Sedimentary,,,,,"Ariunbileg and others, 2003"
185,Shanyangping,China,,39.1514,113.3361,Iron,Sedimentary,,,,,"Ariunbileg and others, 2003"
186,Shirengou,China,,40.2361,117.8806,Iron,Sedimentary,,,,,"Ariunbileg and others, 2003"
187,Sijiaying,China,,39.675,118.7569,Iron,Sedimentary,,,,,"Liu, 1990"
188,Tadong,China,,43.8444,128.6444,Iron,Igneous,,,,,"Ariunbileg and others, 2003"
189,Xishimen,China,,36.8161,114.2331,Iron,Metamorphic,,,,,"Li, 1993"
190,Yuanjiachun,China,,38.2528,111.4633,Iron,Sedimentary,,,,,"Ariunbileg and others, 2003"
191,Zhalanzhangzh,China,,40.3278,119.3694,Iron,Sedimentary,,,,,"Ariunbileg and others, 2003"
192,Bayan Obo,China,,41.1667,117.8833,Iron-tantalum-vanadium,Igneous,,,,,"Ariunbileg and others, 2003"
193,Chuihongshan,China,,48.4569,128.6889,Iron-tungsten,Metamorphic,,,,,"Ariunbileg and others, 2003"
194,Xieertala,China,,49.2,120.6333,Iron-zinc-cadmium,Igneous,,,,,"Ariunbileg and others, 2003"
195,Chaihe,China,,42.2667,124.1667,Lead-zinc,Hydrothermal,,,,,"Ariunbileg and others, 2003"
196,Huanren,China,,41.3,125.3681,Lead-zinc,Metamorphic,,,,,"Ariunbileg and others, 2003"
197,Jiashengpan,China,,41.2306,109.3,Lead-zinc,Hydrothermal,,,,,"Ariunbileg and others, 2003"
198,Qingchengzi,China,,40.7667,123.6333,Lead-zinc,Hydrothermal,,,,,"Metals Economics Group, 1995"
199,Xiaoxilin,China,,47.35,128.9667,Lead-zinc,Hydrothermal,,,,,"Ariunbileg and others, 2003"
200,Xiaoyingzi,China,,42.7833,118.9667,Lead-zinc,Metamorphic,,,,,"Ariunbileg and others, 2003"
201,Lengshukeng,China,,27.95,117.25,Lead-zinc-silver,Hydrothermal,,,,,"Metals Economics Group, 1995"
202,Jinding,China,,26.3833,99.45,Lead-zinc-silver-strontium,Hydrothermal,,,,,"Metals Economics Group, 1995"
203,Xitieshan,China,,36.3167,95.5167,Lead-zinc-tin,Hydrothermal,,,,,"Metals Economics Group, 1995"
204,Fenzishan (Haicheng),China,,37.1667,119.9167,Magnesite,Sedimentary,,,,,"Wen Lu, 1998"
205,Huaziyu (Haicheng),China,,40.85,122.7333,Magnesite,Sedimentary,,,,,"Wen Lu, 1998"
206,Jinjiapuzi (Haicheng),China,,40.6,122.7167,Magnesite,Sedimentary,,,,,"Wen Lu, 1998"
207,Wangjiapuzi (Haicheng),China,,40.5,123.15,Magnesite,Sedimentary,,,,,"Wen Lu, 1998"
208,Xiafangshen,China,,40.6667,122.8333,Magnesite,Sedimentary,,,,,"Ariunbileg and others, 2003"
209,Dawan,China,,39.3111,115.1278,Molybdenum,Hydrothermal,,,,,"Ariunbileg and others, 2003"
210,Jinchuan,China,,38.4667,102.1,Nickel-copper,Igneous,,,,,"Metals Economics Group, 1995"
211,Xinyang,China,,32.05,114.0833,Perlite,Unclassified,,,,,"Wen Lu, 1998"
212,Huangmailing,China,,31.4833,114.1667,Phosphorous,Sedimentary,,,,,"Wen Lu, 1998"
213,Kaiyang,China,,27.05,106.9167,Phosphorous,Unclassified,,,,,"Wen Lu, 1998"
214,Kunming (Junning),China,,25.0667,102.6833,Phosphorous,Sedimentary,,,,,"Wen Lu, 1998"
215,Wengfu,China,,26.7,107.55,Phosphorous,Sedimentary,,,,,"Fountain, 1999"
216,Yichang,China,,30.8,111.3333,Phosphorous,Sedimentary,,,,,"Jasinski, 2000"
217,Anpeng,China,,32.5667,113.15,Potash,Sedimentary,,,,,"Garrett, 1992"
218,Dashanling,China,,30.4167,103.8167,Potash,Sedimentary,,,,,"Wen Lu, 1998"
219,Wucheng,China,,32.4167,113.5,Potash,Sedimentary,,,,,"Garrett, 1992"
220,Bayan Obo,China,,41.8667,109.9667,Rare earth elements-iron,Igneous,,,,,"Drew and others, 1990"
221,Puqian,China,,20.0333,110.5833,Silica sand,Surficial,,,,,"Wen Lu, 1998"
222,Sandaogou,China,,45.175,130.5125,Sillimanite,Metamorphic,,,,,"Jiang, Jisheng, 1994"
223,Jiawula,China,,48.8,116.3333,Silver-gold-lead,Metamorphic,,,,,"Ariunbileg and others, 2003"
224,Fanjiapuzi,China,,40.75,122.95,"Talc, asbestos",Hydrothermal,,,,,"Ariunbileg and others, 2003"
225,Jizhua,China,,25.8,110,"Talc, asbestos",Sedimentary,,,,,"Wen Lu, 1998"
226,Liboshikuang,China,,37.2833,120.8,"Talc, asbestos",Sedimentary,,,,,"Wen Lu, 1998"
227,Mangya,China,,37.8333,91.7667,"Talc, asbestos",Igneous,,,,,"Wen Lu, 1998"
228,Dachang,China,,24.8333,107.8333,Tin,Metamorphic,,,,,"Ariunbileg and others, 2003"
229,Fuhezhong,China,,24.5333,111.5167,Tin,Surficial,,,,,"Liu, 1990"
230,Limu,China,,24.85,110.8,Tin,Igneous,,,,,"Liu, 1990"
231,Shizhuyuan,China,,25.7667,113.2,Tin,Igneous,,,,,"Liu, 1990"
232,Yuxhia,China,,29.8333,106.0333,Tin,Sedimentary,,,,,"Wen Lu, 1998"
233,Baima,China,,27.05,102.1667,Titanium-vanadium-iron,Igneous,,,,,"Kamitani and Naito, 1998"
234,Daijishan,China,,24.6333,114.4,Tungsten,Metamorphic,,,,,"Kamitani and Naito, 1998"
235,Damingshan,China,,23.6,108.3667,Tungsten,Metamorphic,,,,,"Ariunbileg and others, 2003"
236,Lianhuashan,China,,23.65,116.8667,Tungsten,Igneous,,,,,"Liu, 1990"
237,Xihuashan,China,,25.3667,114.3167,Tungsten,Hydrothermal,,,,,"Liu, 1990"
238,Xingluokeng,China,,26.15,116.7833,Tungsten,Igneous,,,,,"Liu, 1990"
239,Yaogangxian,China,,25.65,113.3,Tungsten,Metamorphic,,,,,"Liu, 1990"
240,Tengchong,China,,25.0333,98.4667,wollastonite,Metamorphic,,,,,"Wen Lu, 1998"
241,Tiegsongshan,China,,43.3,124.3167,wollastonite,Metamorphic,,,,,"Wen Lu, 1998"
242,Fangniugou,China,,43.6083,125.0875,Zinc,Hydrothermal,,,,,"Ariunbileg and others, 2003"
243,Tanyaokou,China,,40.9667,106.8333,Zinc-copper,Hydrothermal,,,,,"Metals Economics Group, 1995"
244,Dongshengmiao,China,,41.1667,107.0667,Zinc-lead-copper,Hydrothermal,,,,,"Ariunbileg and others, 2003"
245,Namosi,Fiji,,-18.0417,178.175,Copper-gold-molybdenum,Hydrothermal,,,,,"Singer and others, 2002"
246,Emperor,Fiji,,-17.55,177.5117,Gold,Hydrothermal,,,,,"Kwak, 1990"
247,Amarkantak area,India,,22.7333,81.7667,Aluminum,Surficial,,,,,"Geological Survey India, 1974"
248,Gangapur-Hamla/K.ar,India,,23.05,69.4,Aluminum,Surficial,,,,,"Geological Survey India, 1974"
249,Kolhapur area,India,,16.4667,74.0833,Aluminum,Surficial,,,,,"Geological Survey India, 1974"
250,Natarhat Palamau ar,India,,23.25,84.3667,Aluminum,Surficial,,,,,"Geological Survey India, 1974"
251,Udgiri-Dhangarwadi,India,,16.9,73.9667,Aluminum,Surficial,,,,,"Geological Survey India, 1974"
252,Mangampeta,India,,14.4167,78.7333,Barite,Sedimentary,,,,,"Orris, 1985"
253,Sukinda Valley,India,,21.0333,85.75,Chromium,Igneous,,,,,"DeYoung and others, 1984"
254,Khetri,India,,28.0597,75.7944,Copper,Hydrothermal,,,,,"Roonwal and Wilson, 1998"
255,Surda,India,,22.55,86.4333,Copper,Hydrothermal,,,,,"Raghu and others, 1981"
256,Malanjkhand,India,,22.0167,80.7167,Copper-silver-gold,Hydrothermal,,,,,"Singer and others, 2002"
257,Bahradih pipes,India,,20.2,82.2,Diamond,Igneous,,,,,"McFaul and others, 2002"
258,Amba Dongar,India,,22,74.0833,Fluorite-phosphorus,Igneous,,,,,"Pell, 1996"
259,Kolar,India,,13.1667,78.1667,Gold,Hydrothermal,,,,,"Roonwal and Wilson, 1998"
260,Bababudan,India,,13.5,75.8667,Iron,Sedimentary,,,,,"McFaul and others, 2002"
261,Bailadila,India,,18.7,81.4667,Iron,Sedimentary,,,,,"McFaul and others, 2002"
262,Bolani,India,,22.1333,85.3167,Iron,Sedimentary,,,,,"Kamitani and Naito, 1998"
263,Chiknayakanhalli,India,,13.55,76.9,Iron,Sedimentary,,,,,"McFaul and others, 2002"
264,Chitaldrug area,India,,14.4167,76.3,Iron,Sedimentary,,,,,"Kamitani and Naito, 1998"
265,Kiriburu,India,,22.0833,85.2833,Iron,Sedimentary,,,,,"Kamitani and Naito, 1998"
266,Sandur area,India,,14.8,76.75,Iron,Sedimentary,,,,,"McFaul and others, 2002"
267,Sargipalli,India,,22.0333,83.5833,Lead,Sedimentary,,,,,"Roonwall and Wilson, 1998"
268,Dongri-Buuzurg area,India,,21.5833,79.75,Manganese,Sedimentary,,,,,"Geological Survey India, 1974"
269,Sukinda,India,,20.5,84.8333,Nickel-copper-cobalt,Surficial,,,,,"McFaul and others, 2002"
270,Tuesnsang,India,,26.2667,94.75,Nickel-copper-cobalt,Surficial,,,,,"McFaul and others, 2002"
271,Kudiraimozhi,India,,8.6667,78.0833,Rare earth elements- tin,Surficial,,,,,"Harben and Kuzvart, 1996"
272,Chatrapur,India,,19.3,84.95,Titanium-zirconium-REE,Surficial,,,,,"Jackson and Christiansen, 1993"
273,Chavara,India,,9,76.5,Titanium-zirconium-REE,Surficial,,,,,"Jackson and Christiansen, 1993"
274,Manavala Kurichi,India,,8.1667,77.25,Titanium-zirconium-REE,Surficial,,,,,"Geological Survey India, 1974"
275,Nindakara,India,,8.6667,76.5833,Titanium-zirconium-REE,Surficial,,,,,"Geological Survey India, 1974"
276,Vishakhapatnam,India,,17.8333,83.5333,Titanium-zirconium-REE,Surficial,,,,,"Geological Survey India, 1974"
277,Belkappahar,India,,25.7667,73.4333,wollastonite,Metamorphic,,,,,"Pearson, 2000"
278,Dariba-Rajpura,India,,24.9667,74.1333,Zinc-lead,Hydrothermal,,,,,"Roonwal and Wilson, 1998"
279,Rampura-Agucha,India,,25.8333,74.7333,Zinc-lead,Hydrothermal,,,,,"Roonwal and Wilson, 1998"
280,Zawarmala,India,,24.35,73.7333,Zinc-lead,Hydrothermal,,,,,"Raghu and others, 1981"
281,W. Kalimantan,Indonesia,,-1,112,Aluminum,Surficial,,,,,"Rodenburg, 1984"
282,Tombulilato,Indonesia,,0.3667,123.4,Copper-gold,Hydrothermal,,,,,"Singer and others, 2002"
283,Tangse,Indonesia,,5.0333,95.95,Copper-molybdenum,Hydrothermal,,,,,"Singer and others, 2002"
284,Batu Hijau,Indonesia,,-8.9653,116.8725,Copper-silver-gold,Hydrothermal,,,,,"Singer and others, 2002"
285,Grasberg,Indonesia,,-3.8167,137.2333,Copper-silver-gold,Hydrothermal,,,,,"Singer and others, 2002"
286,Kelian,Indonesia,,-6.1667,106.8333,Gold,Hydrothermal,,,,,"Van Leeuwen and others, 1990"
287,Gagu,Indonesia,,-0.4667,130.8833,Nickel-copper-cobalt,Surficial,,,,,"Van Leeuwen, 1994"
288,Pomalaa,Indonesia,,-4.0667,121.75,Nickel-copper-cobalt,Surficial,,,,,"Carlile and Mitchell, 1994"
289,Soroako,Indonesia,,-2.1333,121.1667,Nickel-copper-cobalt,Surficial,,,,,"Carlile and Mitchell, 1994"
290,Waigeo,Indonesia,,-0.05,129.8667,Nickel-copper-cobalt,Surficial,,,,,"Van Leeuwen, 1994"
291,Hitachi,Japan,,36.6272,140.6039,Copper,Hydrothermal,,,,,"Mariko and Koto, 1994"
292,Makimine,Japan,,32.6239,131.4556,Copper,Hydrothermal,,,,,"Geologic Survey Japan, 1980"
293,Okuki,Japan,,33.5094,132.6531,Copper,Hydrothermal,,,,,"Geologic Survey Japan, 1980"
294,Besshi,Japan,,33.8747,133.3189,Copper-gold-silver,Hydrothermal,,,,,"Watanabe and others, 1998"
295,Osarizawa,Japan,,40.1808,140.7472,Copper-lead-zinc,Hydrothermal,,,,,"Geologic Survey Japan, 1980"
296,Ashio,Japan,,36.6442,139.4208,Copper-zinc-lead-silver,Hydrothermal,,,,,"Omori and others, 1986"
297,Yamagano,Japan,,31.915,130.6236,Gold,Hydrothermal,,,,,"Mining and Materials Processing Institute of Japan, 1989"
298,Hishikari,Japan,,32.005,130.6822,Gold-silver,Hydrothermal,,,,,"Sekine and others, 1998"
299,Konomai,Japan,,44.1333,143.35,Gold-silver,Hydrothermal,,,,,"Mining and Materials Processing Institute of Japan, 1990"
300,Kushikino,Japan,,31.7533,130.3011,Gold-silver,Hydrothermal,,,,,"Geologic Survey Japan, 1980"
301,Sado,Japan,,38.0439,138.2661,Gold-silver,Hydrothermal,,,,,"Mining and Materials Processing Institute of Japan, 1994"
302,Taio,Japan,,33.1236,130.88,Gold-silver,Hydrothermal,,,,,"Geologic Survey Japan, 1980"
303,Takatama,Japan,,37.5075,140.2925,Gold-silver,Hydrothermal,,,,,"Seki, 1993"
304,Kamaishi,Japan,,39.3056,141.7111,Iron-copper,Metamorphic,,,,,"Haruna and others, 1990"
305,Toyoha,Japan,,42.9781,141.0417,Lead-zinc-silver,Hydrothermal,,,,,"Geologic Survey Japan, 1980"
306,Yakumo,Japan,,42.1683,140.1461,Manganese-zinc-lead,Hydrothermal,,,,,"Geologic Survey Japan, 1980"
307,Ryushoden,Japan,,44.3128,143.3236,Mercury,Hydrothermal,,,,,"Geologic Survey Japan, 1980"
308,Yamatosuigin,Japan,,34.4733,135.9775,Mercury,Hydrothermal,,,,,"Kamitani and Naito, 1998"
309,Seikoshi,Japan,,34.9006,138.8242,Silver-gold,Hydrothermal,,,,,"Mining and Materials Processing Institute of Japan, 1994"
310,Ikuno,Japan,,35.1689,134.8256,Silver-gold-copper,Hydrothermal,,,,,"Geologic Survey Japan, 1980"
311,Chichibu,Japan,,36.0172,138.815,Silver-gold-lead,Unclassified,,,,,"Geologic Survey Japan, 1980"
312,Hanaoka-Matsumine,Japan,,40.3067,140.5586,Zinc-copper-lead-silver,Hydrothermal,,,,,"Nakajima, 1989"
313,Hanawa,Japan,,40.18,140.8725,Zinc-copper-lead-silver,Hydrothermal,,,,,"Nakajima, 1989"
314,Shakanai,Japan,,40.3167,140.5561,Zinc-copper-lead- silver,Hydrothermal,,,,,"Nakajima, 1989"
315,Hosokura,Japan,,38.8058,140.9006,Zinc-lead-copper,Hydrothermal,,,,,"Geologic Survey Japan, 1980"
316,Kosaka,Japan,,40.3461,140.7656,Zinc-lead-copper,Hydrothermal,,,,,"Nakajima, 1989"
317,Hanaoka-Fukasawa,Japan,,40.2861,140.6694,Zinc-lead-copper-silver,Hydrothermal,,,,,"Geologic Survey Japan, 1980"
318,Kamioka Tochibora,Japan,,36.3517,137.3167,Zinc-lead-silver,Metamorphic,,,,,"Geologic Survey Japan, 1980"
319,Nakatatsu,Japan,,35.8714,136.5761,Zinc-lead-silver,Metamorphic,,,,,"Murao and others, 1991"
320,Geumdeogsan,Korean Peninsula,,39.7,125.95,Iron,Metamorphic,,,,,"Kamitani and Naito, 1998"
321,Jaeryeong,Korean Peninsula,,38.4,125.6667,Iron,Metamorphic,,,,,"Kamitani and Naito, 1998"
322,Musan,Korean Peninsula,,42.1667,129.1667,Iron,Metamorphic,,,,,"Kamitani and Naito, 1998"
323,Dongnam,Korean Peninsula,,37.2778,128.7917,Iron-molybdenum,Metamorphic,,,,,"Seo and others, 1983"
324,Hongcheon-Jaun,Korean Peninsula,,37.8583,128.0167,Iron-strontium,Igneous,,,,,"Park and Hwang, 1995"
325,Wando,Korean Peninsula,,34.35,126.6833,Pyrophyllite,Hydrothermal,,,,,"O'Driscoll, 1993"
326,Samgoe-Soryong,Korean Peninsula,,36.2167,127.4333,Uranium,Sedimentary,,,,,"Koo and others, 1977"
327,Ban Namtang,Laos,,15.15,106,Aluminum,Surficial,,,,,"ESCAP, 1990b"
328,Savannakhet,Laos,,16.5,105.1833,Gypsum-halite-potassium,Sedimentary,,,,,"ESCAP, 1990b"
329,Pha Lek,Laos,,19.017,103,Iron,Metamorphic,,,,,"ESCAP, 1990b"
330,Phu Nhouan,Laos,,19.4,103,Iron,Metamorphic,,,,,"ESCAP, 1990b"
331,Vientiane Plain,Laos,,18,102,Potash,Sedimentary,,,,,"ESCAP, 1990b"
332,Ban Houei Sai,Laos,,20.35,100.3833,Sapphire,Gemstone,,,,,"ESCAP, 1990b"
333,Nam Pathene Valley,Laos,,17.9333,104.6167,Tin,Surficial,,,,,"ESCAP, 1990b"
334,Mamut,Malaysia,,6.0333,116.4667,Copper-silver-gold,Hydrothermal,,,,,"Singer and others, 2002"
335,Bukit/Sungai,Malaysia,,3.8833,103.0667,Tin,Surficial,,,,,"Kamitani and Naito, 1998"
336,Kinta Valley,Malaysia,,4.3,101,Tin,Surficial,,,,,"Kamitani and Naito, 1998"
337,Pahang/Selangor,Malaysia,,3.8333,101.6667,Tin,Surficial,,,,,"Kamitani and Naito, 1998"
338,Beltesin gol,Mongolia,,50.45,99.35,Aluminum,Igneous,,,,,"ESCAP, 1999b"
339,Duchin gol,Mongolia,,50.3667,99.6167,Aluminum,Igneous,,,,,"Ariunbileg and others, 2003"
340,Borts Uul,Mongolia,,49.3167,93.95,Copper,Hydrothermal,,,,,"Ariunbileg and others, 2003"
341,Oyu Tolgoi,Mongolia,,43.0028,106.8583,Copper,Hydrothermal,,,,,"Ariunbileg and others, 2003"
342,Oyut tolgoi 2,Mongolia,,49.2667,95.9667,Copper,Igneous,,,,,"Ariunbileg and others, 2003"
343,Khokhbulgiin khondii,Mongolia,,46.4833,99.6,Copper-gold,Metamorphic,,,,,"Watanabe and others, 1999"
344,Avdartolgoi,Mongolia,,49.6708,114.8444,Copper-molybdenum,Hydrothermal,,,,,"Singer and others, 2002"
345,Erdenet,Mongolia,,49.0172,104.1192,Copper-molybdenum,Hydrothermal,,,,,"ESCAP, 1999b"
346,Erdenetiin Ovoo,Mongolia,,49,104.1333,Copper-molybdenum,Hydrothermal,,,,,"Singer and others, 2002"
347,Tsagaan Suvarga,Mongolia,,43.8722,108.3333,Copper-molybdenum,Hydrothermal,,,,,"Singer and others, 2002"
348,Berkh 1,Mongolia,,47.775,111.1708,Fluorite,Hydrothermal,,,,,"Ariunbileg and others, 2003"
349,Bor Undur,Mongolia,,46.2333,109.4333,fluorite,Hydrothermal,,,,,"ESCAP, 1999b"
350,Bor-Undur,Mongolia,,46.2639,109.4361,fluorite,Hydrothermal,,,,,"Jargalsaihan and others, 1996"
351,Khajuu Ulaan,Mongolia,,46.2667,109.8667,Fluorite,Unclassified,,,,,"ESCAP, 1999b"
352,Urgen 2,Mongolia,,44.7014,110.7347,Fluorite,Sedimentary,,,,,"Kleiner and others, 1977"
353,Boroo,Mongolia,,48.75,106.15,Gold,Igneous,,,,,"Ariunbileg and others, 2003"
354,Bumbat,Mongolia,,48.2833,104.5167,Gold,Hydrothermal,,,,,"ESCAP, 1999b"
355,Tolgoit,Mongolia,,49.4667,107.3667,Gold,Surficial,,,,,"ESCAP, 1999b"
356,Tsagaantsakhir Uul,Mongolia,,46.0861,100.05,Gold,Igneous,,,,,"Ariunbileg and others, 2003"
357,Bayan Uul,Mongolia,,48.8528,115.6278,Gold-silver-lead,Igneous,,,,,"Ariunbileg and others, 2003"
358,Baruun Tserd,Mongolia,,50.4167,91.7167,Gypsum,Sedimentary,,,,,"Ganbaatar, 1999"
359,Davst uul,Mongolia,,50.3333,93.3333,Halite,Sedimentary,,,,,"Ariunbileg and others, 2003"
360,Sangiyn Dalay,Mongolia,,48.6333,92.9333,Halite,Sedimentary,,,,,"ESCAP, 1999b"
361,Bayan Gol,Mongolia,,49.6,107.0167,Iron,Metamorphic,,,,,"ESCAP, 1999b"
362,Tumurtei,Mongolia,,49.6833,107.25,Iron,Metamorphic,,,,,"ESCAP, 1999b"
363,Bagatsagaan gol,Mongolia,,50.6833,100.0833,Manganese,Igneous,,,,,"Ariunbileg and others, 2003"
364,Saihangol,Mongolia,,50.8667,100.1333,Manganese,Igneous,,,,,"Ariunbileg and others, 2003"
365,Aryn nuur,Mongolia,,47.2167,113.95,Molybdenum,Hydrothermal,,,,,"Ariunbileg and others, 2003"
366,Khalzanburegtei,Mongolia,,48.3667,91.9333,Niobium-zirconium,Metamorphic,,,,,"Ariunbileg and others, 2003"
367,Burenhan,Mongolia,,49.8,99.95,Phosphorous,Sedimentary,,,,,"Byamba, 1996"
368,Hubsgul Basin,Mongolia,,50.6833,100.1667,Phosphorous,Unclassified,,,,,"ESCAP, 1999b"
369,Hubsugul,Mongolia,,50.6833,100.1667,Phosphorous,Sedimentary,,,,,"Ilin, 1973"
370,Tsagaan Nuur,Mongolia,,51.2333,99.3833,Phosphorous,Sedimentary,,,,,"Ilin, 1973"
371,Uhagol,Mongolia,,51.7,100.0333,Phosphorous,Sedimentary,,,,,"Ilin, 1973"
372,Lugin Gol,Mongolia,,42.95,108.5667,Rare earth elements,Igneous,,,,,"ESCAP, 1999b"
373,Mushgai hudag,Mongolia,,44.4,104.05,Rare earth elements,Igneous,,,,,"Munkhtsengel and Iizumi, 1999"
374,Mushgai Khudag,Mongolia,,44.3333,104,Rare earth elements,Igneous,,,,,"ESCAP, 1999b"
375,Mongon Ondor,Mongolia,,47.8333,110.1833,Silver,Hydrothermal,,,,,"Ariunbileg and others, 2003"
376,Asgat,Mongolia,,49.8722,89.6417,Silver-antimony,Hydrothermal,,,,,"Ariunbileg and others, 2003"
377,Tolbo nuur,Mongolia,,48.5861,90.2583,Silver-antimony,Hydrothermal,,,,,"Ariunbileg and others, 2003"
378,Dulaan khar uul,Mongolia,,49.3167,90.4333,Silver-gold-lead,Hydrothermal,,,,,"Ariunbileg and others, 2003"
379,Altanboom,Mongolia,,50.3333,98.5,Tantalum,Metamorphic,,,,,"Jargalsaihan and others, 1996"
380,Ondortsagan,Mongolia,,47.8667,110.1667,Tungsten-molybdenum,Igneous,,,,,"Ariunbileg and others, 2003"
381,Tsagaan dabaa,Mongolia,,48.1833,106.0667,Tungsten-molybdenum,Igneous,,,,,"Ariunbileg and others, 2003"
382,Nars,Mongolia,,44.9167,113.55,Uranium,Sedimentary,,,,,"Ochirbat, 1999"
383,Hitagiin gol,Mongolia,,49.8167,99.8333,Vanadium,Sedimentary,,,,,"Ariunbileg and others, 2003"
384,Tsagaan Tsav,Mongolia,,45.65,91.2333,Zeolite,Unclassified,,,,,"ESCAP, 1999b"
385,Tsagaantsav,Mongolia,,44.6333,109.75,Zeolite,Igneous,,,,,"Ariunbileg and others, 2003"
386,Ulaan,Mongolia,,49.05,114.0833,Zinc-lead-silver,Unclassified,,,,,"ESCAP, 1999b"
387,Mungon-Ondur,Mongolia,,47.85,110.1833,Zinc-lead-tin-silver,Igneous,,,,,"Ariunbileg and others, 2003"
388,Ulaantolgoi,Mongolia,,49.4667,93.0333,Zirconium-tantalum-REE,Igneous,,,,,"Ariunbileg and others, 2003"
389,Kharidhunga,Nepal,,27.6333,85.9417,Magnesite-talc,Unclassified,,,,,"ESCAP, 1993b"
390,Kouaoua,New Caledonia,,-21.4,165.75,Nickel-copper-cobalt,Surficial,,,,,"Dixon, 1979"
391,Moneo,New Caledonia,,-21.15,165.4833,Nickel-copper-cobalt,Surficial,,,,,"Dixon, 1979"
392,Poro district,New Caledonia,,-21.3167,165.7,Nickel-copper-cobalt,Surficial,,,,,"Dixon, 1979"
393,Thio district,New Caledonia,,-21.6167,166.1667,Nickel-copper-cobalt,Surficial,,,,,"Dixon, 1979"
394,Reefton,New Zealand,,-42.0833,171.85,Gold,Hydrothermal,,,,,"Williams, 1974"
395,Waihi,New Zealand,,-37.3889,175.8461,Gold,Hydrothermal,,,,,"Williams, 1974"
396,Otago,New Zealand,,-45.3833,170.4333,Gold-tungsten,Surficial,,,,,"Williams, 1974"
397,Waikato,New Zealand,,-37.3527,174.7315,Iron-tantalum,Surficial,,,,,"ESCAP, 1988a"
398,Cobb Valley,New Zealand,,-41.0965,172.683,Magnesite,Igneous,,,,,"ESCAP, 1988b"
399,Parengarenga,New Zealand,,-31.5283,172.9587,Silica sand,Surficial,,,,,"ESCAP, 1988b"
400,Barrytown,New Zealand,,-42.208,171.3167,Titanium-zirconium-REE,Surficial,,,,,"McPherson, 1978"
401,Westport,New Zealand,,-41.7833,171.55,Titanium-zirconium-REE,Surficial,,,,,"McPherson, 1978"
402,Khuzdar,Pakistan,,26.7667,66.5167,Barite-lead-zinc,Sedimentary,,,,,"Grundstofftechnik, 1992"
403,Bunap area,Pakistan,,28.8,64.95,Chromium,Igneous,,,,,"Grundstofftechnik, 1992"
404,Sonaro,Pakistan,,26.3583,66.4861,Chromium,Igneous,,,,,"Grundstofftechnik, 1992"
405,Sakhakot-Qila Ophio,Pakistan,,34.4667,71.9,Chromium-platinum,Igneous,,,,,"Grundstofftechnik, 1992"
406,Reko Diq,Pakistan,,29.1333,62.0333,Copper-gold,Hydrothermal,,,,,"Singer and others, 2002"
407,Dash-e-Kain,Pakistan,,29.5544,64.5042,Copper-gold-molybdenum,Hydrothermal,,,,,"Singer and others, 2002"
408,Saindak,Pakistan,,29.2708,61.6056,Copper-gold-molybdenum,Hydrothermal,,,,,"Singer and others, 2002"
409,Swat Emerald Mine,Pakistan,,34.75,72.3333,Emerald,Gemstone,,,,,"Kazmi and others, 1986"
410,Jatta Salt Mines,Pakistan,,33.3333,71.3333,Halite,Sedimentary,,,,,"Lee, 1980"
411,Khewra Salt Mines,Pakistan,,32.65,73.0167,Halite,Sedimentary,,,,,"Lee, 1980"
412,Kalabagh,Pakistan,,32.9667,71.5667,Halite-potassium,Sedimentary,,,,,"Lee, 1980"
413,Warcha Salt Mine,Pakistan,,32.6,72.75,Halite-potassium,Sedimentary,,,,,"Lee, 1980"
414,Pachin Koh,Pakistan,,29.1944,62.9139,Iron,Unclassified,,,,,"Grundstofftechnik, 1992"
415,Gunga,Pakistan,,27.7417,66.5333,Lead-zinc-barite,Hydrothermal,,,,,"Grundstofftechnik, 1992"
416,Loe Shilman,Pakistan,,34.2208,71.1411,Phosphorous,Sedimentary,,,,,"Pell, 1996"
417,Hunza Valley area,Pakistan,,36.275,75.5917,Ruby-spinel-sapphire,Gemstone,,,,,"Grundstofftechnik, 1992"
418,Duddar,Pakistan,,26.0972,66.8272,Zinc-lead-silver,Hydrothermal,,,,,"McFaul and others, 2002"
419,Bougainville,Papua New Guinea,,-6.3167,155.5,Copper-molybdenum,Hydrothermal,,,,,"Singer and others, 2002"
420,Ok Tedi,Papua New Guinea,,-5.2,141.1333,Copper-molybdenum-gold,Hydrothermal,,,,,"Singer and others, 2002"
421,Frieda River,Papua New Guinea,,-4.7,141.7833,Copper-silver-gold,Hydrothermal,,,,,"Singer and others, 2002"
422,Yandera,Papua New Guinea,,-5.75,145.1667,Copper-silver-gold,Hydrothermal,,,,,"Singer and others, 2002"
423,Porgera/Waruwari,Papua New Guinea,,-5.4667,143.0833,Gold-silver,Hydrothermal,,,,,"Kamitani and Naito, 1998"
424,Acoje,Philippines,,15.9667,119.9333,Chromium,Igneous,,,,,"Bureau of Mines and Geosciences, 1986"
425,Coto/Masinloc,Philippines,,15.7667,119.9333,Chromium,Igneous,,,,,"Bureau of Mines and Geosciences, 1986"
426,San Fabian,Philippines,,16.3833,120.9833,Copper-gold,Hydrothermal,,,,,"Singer and others, 2002"
427,Tampakan,Philippines,,6.47,125.0667,Copper-gold,Hydrothermal,,,,,"Singer and others, 2002"
428,Atlas,Philippines,,10.3667,123.8333,Copper-silver-gold,Hydrothermal,,,,,"Singer and others, 2002"
429,Basay,Philippines,,9.5667,122.6333,Copper-silver-gold,Hydrothermal,,,,,"Singer and others, 2002"
430,Hinobaan,Philippines,,9.75,122.5667,Copper-silver-gold,Hydrothermal,,,,,"Singer and others, 2002"
431,Kingking,Philippines,,7.1667,125.9917,Copper-silver-gold,Hydrothermal,,,,,"Singer and others, 2002"
432,Mankayan,Philippines,,16.8583,120.7833,Copper-silver-gold,Hydrothermal,,,,,"Singer and others, 2002"
433,Marcopper,Philippines,,13.45,122.0833,Copper-silver-gold,Hydrothermal,,,,,"Singer and others, 2002"
434,Santo Ni,Philippines,,16.4903,120.6556,Copper-silver-gold,Hydrothermal,,,,,"Singer and others, 2002"
435,Santo Tomas II,Philippines,,16.2556,120.625,Copper-silver-gold,Hydrothermal,,,,,"Singer and others, 2002"
436,Sipalay,Philippines,,9.8167,122.45,Copper-silver-gold,Hydrothermal,,,,,"Singer and others, 2002"
437,Taysan,Philippines,,13.8,121.1333,Copper-silver-gold,Hydrothermal,,,,,"Singer and others, 2002"
438,Bagacay,Philippines,,11.8,125.2667,Copper-sulfur,Hydrothermal,,,,,"Hutchison and Taylor, 1978"
439,Lepanto,Philippines,,16.85,120.7528,Gold-copper,Hydrothermal,,,,,"Mitchell and Leach, 1991"
440,Baguio,Philippines,,16.4236,120.6417,Gold-silver,Hydrothermal,,,,,"Mitchell and Leach, 1991"
441,Nonoc I,Philippines,,10.2,125.6333,Nickel-copper-cobalt,Surficial,,,,,"Bureau of Mines and Geosciences, 1986"
442,Rio Tuba,Philippines,,8.7,117.3333,Nickel-copper-cobalt,Surficial,,,,,"Bureau of Mines and Geosciences, 1986"
443,Elahera,Sri Lanka,,7.7833,80.7833,Gem,Gemstone,,,,,"ESCAP, 1989"
444,Okkampitiya,Sri Lanka,,6.7833,81.2667,Gem,Gemstone,,,,,"ESCAP, 1989"
445,Ratnapura,Sri Lanka,,6.5,80.4167,Gem,Gemstone,,,,,"ESCAP, 1989"
446,Eppawella,Sri Lanka,,8.1667,80.6667,Phosphorous,Igneous,,,,,"Jayawardena, 1998"
447,Pulmoddai,Sri Lanka,,8.95,80.95,Titanium-zirconium-REE,Surficial,,,,,"ESCAP, 1989"
448,Khon Kaen,Thailand,,16.3333,102.8667,Halite-potassium,Sedimentary,,,,,"ESCAP, 2001"
449,Non Sung,Thailand,,15.5,101.75,Halite-potassium,Sedimentary,,,,,"ESCAP, 2001"
450,Udon Thani- North,Thailand,,17.5,103.0833,Halite-potassium,Sedimentary,,,,,"ESCAP, 2001"
451,Udon Thani- South,Thailand,,17.3333,102.6667,Halite-potassium,Sedimentary,,,,,"ESCAP, 2001"
452,Udon Thani,Thailand,,17.4167,102.75,Potash,Sedimentary,,,,,"ESCAP, 2001"
453,Kamchanaburi,Thailand,,14.3333,99.5,Sapphire,Gemstone,,,,,"ESCAP, 2001"
454,Nakhon Si Thammarat,Thailand,,9.05,99.8,Tin,Surficial,,,,,"Kamitani and Naito, 1998"
455,"Phuket Area, Offsh",Thailand,,7.9167,98.25,Tin,Surficial,,,,,"Kamitani and Naito, 1998"
456,Ranong Area,Thailand,,9.85,98.6333,Tin,Surficial,,,,,"Kamitani and Naito, 1998"
457,Takua Pa/Phang Nga,Thailand,,8.8333,98.2833,Tin,Surficial,,,,,"Kamitani and Naito, 1998"
458,Mae Sod/Padaeng,Thailand,,16.6833,98.7167,Zinc,Hydrothermal,,,,,"Hutchison and Taylor, 1978"
459,Sin Quyen,Vietnam,,22.667,104.55,Copper-gold,Unclassified,,,,,"Singer and others, 2002"
460,Thach Khe,Vietnam,,18.3,105.9333,Iron,Metamorphic,,,,,"Kamitani and Naito, 1998"
461,Lao Cai Basin,Vietnam,,22.5,103.95,Phosphorous,Unclassified,,,,,"ESCAP, 1990a"
462,Vientiane Plain,Vietnam,,18,102.6667,Potassium-gypsum-halite,Sedimentary,,,,,"ESCAP, 1990a"
463,Nam Xe,Vietnam,,22.4833,103.5,Rare earth elements,Unclassified,,,,,"ESCAP, 1990a"
464,Cat Khanh,Vietnam,,13.5,105.2,Titanium-zirconium-REE,Surficial,,,,,"ESCAP, 1990a"
465,Ke Sung,Vietnam,,16.5,107.5833,Titanium-zirconium-REE,Surficial,,,,,"ESCAP, 1990a"
466,Mi Tho,Vietnam,,13.75,109.25,Titanium-zirconium-REE,Surficial,,,,,"ESCAP, 1990a"
467,Vinh Mi (Vinh My),Vietnam,,16.3333,107.75,Titanium-zirconium-REE,Surficial,,,,,"ESCAP, 1990a"
468,Spor Mountain,United States,Utah,39.707,-113.217,beryllium,Hydrothermal,Epithermal beryllium deposit,na,no model,,Harben and Kuè?vart (1996)
469,Kennecott,United States,Alaska,61.528,-142.84,copper,Hydrothermal,Copper sulfide mineral deposit associated with carbonate sedimentary rocks,unassigned,Kennecott Cu,,U.S. Geological Survey National Mineral Resource Assessment Team (2000); Kirkham (1996)
470,Allouez,United States,Michigan,47.289,-88.404,copper,Hydrothermal,Native copper deposits associated with basalt flows,23,Basaltic Cu,,Kirkham (1996)
471,Baltic,United States,Michigan,47.065,-88.634,copper,Hydrothermal,Native copper deposits associated with basalt flows,23,Basaltic Cu,,Kirkham (1996)
472,Calumet - Hecla,United States,Michigan,47.246,-88.45,copper,Hydrothermal,Native copper deposits associated with basalt flows,23,Basaltic Cu,,Kirkham (1996)
473,Kearsarge,United States,Michigan,47.278,-88.418,copper,Hydrothermal,Native copper deposits associated with basalt flows,23,Basaltic Cu,,Kirkham (1996)
474,Kingston Conglomerate,United States,Michigan,47.291,-88.385,copper,Hydrothermal,Native copper deposits associated with basalt flows,23,Basaltic Cu,,Long and others (1998)
475,Osceola,United States,Michigan,47.225,-88.459,copper,Hydrothermal,Native copper deposits associated with basalt flows,23,Basaltic Cu,,Kirkham (1996)
476,Pewabic,United States,Michigan,47.133,-88.567,copper,Hydrothermal,Native copper deposits associated with basalt flows,23,Basaltic Cu,,Kirkham (1996)
477,Bond Creek - Orange Hill,United States,Alaska,62.2,-142.767,copper,Hydrothermal,Porphyry copper deposit,17,Porphyry Cu,,Mutschler and others (1999)
478,Glacier Peak,United States,Washington,48.198,-120.979,copper,Hydrothermal,Porphyry copper deposit,17,Porphyry Cu,,Singer and others (2002); Long and others (1998)
479,Lakeshore (Cyprus Casa Grande; Cyprus Tohono),United States,Arizona,32.52,-111.88,copper,Hydrothermal,Porphyry copper deposit,17,Porphyry Cu,,Singer and others (2002); Long and others (1998)
480,Miami East,United States,Arizona,33.42,-110.74,copper,Hydrothermal,Porphyry copper deposit,17,Porphyry Cu,,Long and others (1998)
481,Poston Butte (Florence),United States,Arizona,33.117,-111.417,copper,Hydrothermal,Porphyry copper deposit,17,Porphyry Cu,,Singer and others (2002); Long and others (1998)
482,Red Mountain,United States,Arizona,31.49,-110.72,copper,Hydrothermal,Porphyry copper deposit,17,Porphyry Cu,,Singer and others (2002)
483,Santa Cruz,United States,Arizona,32.89,-111.86,copper,Hydrothermal,Porphyry copper deposit,17,Porphyry Cu,,Long and others (1998)
484,Santa Cruz (Casa Grande) Sacaton,United States,Arizona,32.867,-111.95,copper,Hydrothermal,Porphyry copper deposit,17,Porphyry Cu,,Mutschler and others (1999)
485,Sheep Mountain,United States,Arizona,34.08,-112.46,copper,Hydrothermal,Porphyry copper deposit,17,Porphyry Cu,,Singer and others (2002)
486,Superior East (Pinal Ranch),United States,Arizona,33.378,-110.999,copper,Hydrothermal,Porphyry copper deposit,17,Porphyry Cu,,Singer and others (2002)
487,Yerington,United States,Nevada,38.983,-119.183,copper,Hydrothermal,Porphyry copper deposit,17,Porphyry Cu,,Mutschler and others (1999)
488,Kona Dolomite,United States,Michigan,46.533,-87.45,copper,Hydrothermal,Sediment-hosted copper deposit,30b.2,"Sediment-hosted copper, reduced-facies subtype",,Cox and others (2003); Long and others (1998)
489,White Pine,United States,Michigan,46.767,-89.567,copper,Hydrothermal,Sediment-hosted copper deposit,30b.2,"Sediment-hosted copper, reduced-facies subtype",,Cox and others (2003); Long and others (1998)
490,Blackbird,United States,Idaho,45.121,-114.339,"copper, cobalt",Hydrothermal,Sedimentary exhalative copper-cobalt deposit,24d,Blackbird Co-Cu,,Spanski (2004)
491,Iron Creek,United States,Idaho,44.962,-114.115,"copper, cobalt",Hydrothermal,Sedimentary exhalative copper-cobalt deposit,24d,Blackbird Co-Cu,,Spanski (2004)
492,Ram (Idaho Cobalt Project),United States,Idaho,45.14,-114.36,"copper, cobalt",Hydrothermal,Sedimentary exhalative copper-cobalt deposit,24d,Blackbird Co-Cu,,Spanski (2004)
493,Ajo (New Cornelia),United States,Arizona,32.36,-112.85,"copper, gold",Hydrothermal,Porphyry copper deposit,17,Porphyry Cu,,Singer and others (2002); Long and others (1998)
494,Dos Pobres,United States,Arizona,32.97,-109.65,"copper, gold",Hydrothermal,Porphyry copper deposit,20c,Porphyry Cu-Au,,Long and others (1998)
495,"Ely (Robinson, Ruth)",United States,Nevada,39.26,-114.999,"copper, gold",Hydrothermal,Porphyry copper deposit,17,Porphyry Cu,,Singer and others (2002); Mutschler and others (1999)
496,Lone Star,United States,Arizona,32.93,-109.6,"copper, gold",Hydrothermal,Porphyry copper deposit,20c,Porphyry Cu-Au,,Long and others (1998)
497,Margaret (Earl),United States,Washington,46.356,-122.081,"copper, gold",Hydrothermal,Porphyry copper deposit,17,Porphyry Cu,,Singer and others (2002); Long and others (1998)
498,Pebble Copper (Pebble Beach),United States,Alaska,59.898,-155.296,"copper, gold",Hydrothermal,Porphyry copper deposit,20c,Porphyry Cu-Au,,Singer and others (2002)
499,"Safford (Lone Star, includes Dos Pobres, San Juan)",United States,Arizona,32.933,-109.6,"copper, gold",Hydrothermal,Porphyry copper deposit,20c,Porphyry Cu-Au,,Singer and others (2002); Long and others (1998)
500,Bagdad,United States,Arizona,34.58,-113.17,"copper, molybdenum, silver, gold",Hydrothermal,Porphyry copper deposit,21a,Porphyry Cu-Mo,,Singer and others (2002)
501,Bingham Canyon,United States,Utah,40.54,-112.14,"copper, molybdenum, silver, gold",Hydrothermal,Porphyry copper deposit,21a,Porphyry Cu-Mo,,Long and others (1998)
502,"Butte (Continental, Berkeley etc.)",United States,Montana,46.02,-112.526,"copper, molybdenum, silver, gold",Hydrothermal,Porphyry copper deposit,21a,Porphyry Cu-Mo,,Long and others (1998)
503,Casa Grande West (Santa Cruz),United States,Arizona,32.867,-111.95,"copper, molybdenum, silver, gold",Hydrothermal,Porphyry copper deposit,21a,Porphyry Cu-Mo,,Singer and others (2002)
504,Esperanza - Sierrita,United States,Arizona,31.869,-111.12,"copper, molybdenum, silver, gold",Hydrothermal,Porphyry copper deposit,21a,Porphyry Cu-Mo,,Singer and others (2002)
505,"Miami - Inspiration (includes Bluebird, Copper Cities, Globe, Van Dyke)",United States,Arizona,33.42,-110.74,"copper, molybdenum, silver, gold",Hydrothermal,Porphyry copper deposit,21a,Porphyry Cu-Mo,,Singer and others (2002); Long and others (1998)
506,Mineral Park,United States,Arizona,35.367,-114.15,"copper, molybdenum, silver, gold",Hydrothermal,Porphyry copper deposit,21a,Porphyry Cu-Mo,,Kirkham and Sinclair (1996a)
507,Morenci - Metcalf,United States,Arizona,33.09,-109.34,"copper, molybdenum, silver, gold",Hydrothermal,Porphyry copper deposit,21a,Porphyry Cu-Mo,,Singer and others (2002); Long and others (1998)
508,Pinto Valley - Castle Dome,United States,Arizona,33.4,-110.95,"copper, molybdenum, silver, gold",Hydrothermal,Porphyry copper deposit,21a,Porphyry Cu-Mo,,Long and others (1998)
509,Ray,United States,Arizona,33.16,-110.97,"copper, molybdenum, silver, gold",Hydrothermal,Porphyry copper deposit,21a,Porphyry Cu-Mo,,Singer and others (2002); Long and others (1998)
510,San Manuel - Kalamazoo,United States,Arizona,32.67,-110.67,"copper, molybdenum, silver, gold",Hydrothermal,Porphyry copper deposit,21a,Porphyry Cu-Mo,,Singer and others (2002); Long and others (1998)
511,Taurus,United States,Alaska,63.521,-141.324,"copper, molybdenum, silver, gold",Hydrothermal,Porphyry copper deposit,21a,Porphyry Cu-Mo,,Long and others (1998)
512,Twin Buttes,United States,Arizona,31.88,-111.03,"copper, molybdenum, silver, gold",Hydrothermal,Porphyry copper deposit,21a,Porphyry Cu-Mo,,Singer and others (2002)
513,Tyrone,United States,New Mexico,32.633,-108.367,"copper, molybdenum, silver, gold",Hydrothermal,Porphyry copper deposit,21a,Porphyry Cu-Mo,,Singer and others (2002)
514,Bisbee (Warren),United States,Arizona,31.433,-109.9,"copper, silver",Hydrothermal,Porphyry copper deposit,17,Porphyry Cu,,Mutschler and others (1999)
515,"Castle Dome (Pinto Valley, includes Carlota - Cactus)",United States,Arizona,33.4,-110.95,"copper, silver",Hydrothermal,Porphyry copper deposit,17,Porphyry Cu,,Singer and others (2002)
516,Hannover Mountains (Fierro - Hannover),United States,New Mexico,32.833,-108.083,"copper, silver",Hydrothermal,Porphyry copper deposit,17,Porphyry Cu,,Singer and others (2002)
517,"Helvetia (Rosemont, includes Rosemont, Peach - Elgin, Broadtop Butte, and Copper World)",United States,Arizona,31.83,-110.76,"copper, silver",Hydrothermal,Porphyry copper deposit,17,Porphyry Cu,,Singer and others (2002)
518,Mission - Pima - San Xavier,United States,Arizona,31.983,-111.067,"copper, silver",Hydrothermal,Porphyry copper deposit,17,Porphyry Cu,,Singer and others (2002); Long and others (1998)
519,Rosemont - Peach - Elgin - Broadtop Butte,United States,Arizona,31.83,-110.76,"copper, silver",Hydrothermal,Porphyry copper deposit,18a,"Porphyry Cu, skarn-related",,Long and others (1998)
520,"Rock Creek (includes Rock Lake, Montanore, Copper Gulch, Horizon Basin, Rock Peak)",United States,Montana,48.079,-115.677,"copper, silver",Hydrothermal,Revett copper deposit,30b.4,Revett Cu,,Cox and others (2003); Long and others (1998)
521,Spar Lake (Troy mine),United States,Montana,48.23,-115.905,"copper, silver",Hydrothermal,Revett copper deposit,30b.4,Revett Cu,,Cox and others (2003)
522,Bingham Canyon (skarn),United States,Utah,40.54,-112.14,"copper, silver, gold",Hydrothermal,Copper skarn deposit,18b,"Skarn, Cu",,Long and others (1998)
523,Robinson,United States,Nevada,39.26,-115,"copper, silver, gold",Hydrothermal,Porphyry copper deposit,18a,"Porphyry Cu, skarn-related",,Long and others (1998)
524,"Santa Rita (Chino, includes Groundhog - Pewabic - Empire (skarns))",United States,New Mexico,32.792,-108.067,"copper, silver, gold",Hydrothermal,Porphyry copper deposit,17,Porphyry Cu,,Singer and others (2002)
525,Magma,United States,Arizona,33.306,-111.093,"copper, silver, gold",Hydrothermal,Porphyry-related copper veins,gsc17,"Vein, polymetallic, porphyry Cu-related",,Kirkham and Sinclair (1996b)
526,Butte (Veins),United States,Montana,46.02,-112.53,"copper, silver, zinc, gold, lead",Hydrothermal,Porphyry-related copper veins,gsc17,"Vein copper deposits (Vein, polymetallic, porphyry Cu-related)",,Long and others (1998)
527,Donlin Creek,United States,Alaska,62.075,-158.217,gold,Hydrothermal,Intrusion-related gold deposit,43,Plutonic porphyry Au,,Long and others (1998)
528,Fort Knox,United States,Alaska,64.967,-147.367,gold,Hydrothermal,Intrusion-related gold deposit,43,Plutonic porphyry Au,,Long and others (1998)
529,Pogo (Liese zone),United States,Alaska,64.283,-144.883,gold,Hydrothermal,Intrusion-related gold deposit,43,Plutonic porphyry Au,,Mutschler and others (1999)
530,"Alaska - Juneau (A.J., Perseverance)",United States,Alaska,58.308,-134.345,gold,Hydrothermal,Orogenic gold veins,36a,Low-sulfide Au-quartz vein,,Long and others (1998)
531,Empire - North Star,United States,California,39.206,-121.045,gold,Hydrothermal,Orogenic gold veins,36a,Low-sulfide Au-quartz vein,,Long and others (1998)
532,Homestake,United States,South Dakota,44.36,-103.77,gold,Hydrothermal,Orogenic gold veins,36b,Homestake Au,,Long and others (1998)
533,Idaho - Maryland - Eureka - Brunswick,United States,California,39.224,-121.038,gold,Hydrothermal,Orogenic gold veins,36a,Low-sulfide Au-quartz vein,,Long and others (1998)
534,Jamestown,United States,California,37.946,-120.437,gold,Hydrothermal,Orogenic gold veins,36a,Low-sulfide Au-quartz vein,,Long and others (1998)
535,Kensington - Jualin,United States,Alaska,58.866,-135.087,gold,Hydrothermal,Orogenic gold veins,36a,Low-sulfide Au-quartz vein,,Long and others (1998)
536,Candelaria,United States,Nevada,38.15,-118.08,"gold, silver",Hydrothermal,Distal disseminated gold deposit,19c,Distal disseminated Ag-Au,,Long and others (1998)
537,Hardshell,United States,Arizona,31.46,-110.72,"gold, silver",Hydrothermal,Distal disseminated gold deposit,19c,Distal disseminated Ag-Au,,Long and others (1998)
538,Lone Tree - Stonehouse,United States,Nevada,40.83,-117.21,"gold, silver",Hydrothermal,Distal disseminated gold deposit,19c,Distal disseminated Ag-Au,,Long and others (1998); Tingley (2002)
539,McCoy - Cove,United States,Nevada,40.34,-117.21,"gold, silver",Hydrothermal,Distal disseminated gold deposit,19c,Distal disseminated Ag-Au,,Long and others (1998)
540,Rochester,United States,Nevada,40.28,-118.15,"gold, silver",Hydrothermal,Distal disseminated gold deposit,19c,Distal disseminated Ag-Au,,Long and others (1998)
541,"Bald Mountain (Wharf, Trojan, Portland)",United States,South Dakota,44.344,-103.842,"gold, silver",Hydrothermal,Epithermal gold deposit,22b,Alakaline Au-Te (Au-Ag-Te veins),,Long and others (1998)
542,"Black Hills Tertiary (includes Gilt Edge, Golden Reward, Annie Creek (Foley Ridge), Richmond Hill, Green Mountain)",United States,South Dakota,44.333,-103.767,"gold, silver",Hydrothermal,Epithermal gold deposit,25a-d,Epithermal vein,,Mutschler and others (1999)
543,Comstock Lode,United States,Nevada,39.32,-119.59,"gold, silver",Hydrothermal,Epithermal gold deposit,25c,"Epithermal vein, Comstock",,Long and others (1998)
544,Cripple Creek,United States,Colorado,38.717,-105.133,"gold, silver",Hydrothermal,Epithermal gold deposit,22b,Alakaline Au-Te (Au-Ag-Te veins),,Long and others (1998)
545,Goldbanks,United States,Nevada,40.465,-117.604,"gold, silver",Hydrothermal,Epithermal gold deposit,25a,Hot-spring Au-Ag,,Long and others (1998)
546,Golden Sunlight,United States,Montana,45.906,-112.014,"gold, silver",Hydrothermal,Epithermal gold deposit,22b,Alakaline Au-Te (Au-Ag-Te veins),,Long and others (1998); Mutschler and others (1999)
547,Goldfield,United States,Nevada,37.71,-117.21,"gold, silver",Hydrothermal,Epithermal gold deposit,25e,Epithermal quartz-alunite Au,,Long and others (1998)
548,Ken Snyder (Midas) mine (Gold Circle district),United States,Nevada,41.25,-116.79,"gold, silver",Hydrothermal,Epithermal gold deposit,25c,"Epithermal vein, Comstock",,Long and others (1998); Tingley (2002)
549,McDonald,United States,Montana,47,-112.525,"gold, silver",Hydrothermal,Epithermal gold deposit,25a,Hot-spring Au-Ag,,Long and others (1998)
550,McLaughlin,United States,California,38.836,-122.357,"gold, silver",Hydrothermal,Epithermal gold deposit,25a,Hot-spring Au-Ag,,Long and others (1998)
551,Mesquite,United States,California,33.098,-114.963,"gold, silver",Hydrothermal,Epithermal gold deposit,25a,Hot-spring Au-Ag,,Long and others (1998)
552,Oatman,United States,Arizona,35.1,-114.447,"gold, silver",Hydrothermal,Epithermal gold deposit,25c,"Epithermal vein, Comstock",,Long and others (1998)
553,Ortiz Mountains (Old Placers),United States,New Mexico,35.317,-106.167,"gold, silver",Hydrothermal,Epithermal gold deposit,25a-d,Epithermal vein,,Mutschler and others (1999)
554,Republic District (Knob Hill etc.),United States,Washington,48.673,-118.758,"gold, silver",Hydrothermal,Epithermal gold deposit,25c,"Epithermal vein, Comstock",,Long and others (1998)
555,Round Mountain,United States,Nevada,38.7,-117.08,"gold, silver",Hydrothermal,Epithermal gold deposit,25a,Hot-spring Au-Ag,,Long and others (1998)
556,Sleeper,United States,Nevada,41.33,-118.05,"gold, silver",Hydrothermal,Epithermal gold deposit,25a,Hot-spring Au-Ag,,Long and others (1998); Tingley (2002)
557,Tonopah,United States,Nevada,38.07,-117.23,"gold, silver",Hydrothermal,Epithermal gold deposit,25c,"Epithermal vein, Comstock",,Long and others (1998)
558,Zortman - Landusky,United States,Montana,47.929,-108.586,"gold, silver",Hydrothermal,Epithermal gold deposit,22b,Alakaline Au-Te (Au-Ag-Te veins),,Long and others (1998)
559,Battle Mountain (Tomboy - Minnie - Fortitude - Northeast Ext. - Iron Canyon - Midas - Phoenix),United States,Nevada,40.53,-117.12,"gold, silver",Hydrothermal,Gold skarn deposit,18f,"Skarn, Au",,Long and others (1998); Mutschler and others (1999); Tingley (2002); Newmont (2003)
560,"Betze - Post (Betze, Screamer, and Deep Post)",United States,Nevada,40.977,-116.358,"gold, silver",Hydrothermal,Sediment-hosted gold deposit,26a.1,Sediment-hosted Au,,Long and others (1998); Bettles (2002)
561,Carlin - Hardie,United States,Nevada,40.912,-116.32,"gold, silver",Hydrothermal,Sediment-hosted gold deposit,26a.1,Sediment-hosted Au,,Long and others (1998)
562,Chimney Creek South - Rabbit Creek,United States,Nevada,41.28,-117.157,"gold, silver",Hydrothermal,Sediment-hosted gold deposit,26a.1,Sediment-hosted Au,,Singer and others (1993)
563,"Cortez (Cortez, Pipeline, South Pipeline, Pediment, Gap, Gold Acres, and Horse Canyon)",United States,Nevada,40.248,-116.74,"gold, silver",Hydrothermal,Sediment-hosted gold deposit,26a.1,Sediment-hosted Au,,Long and others (1998); Tingley (2002); Placer Dome (2002a)
564,Genesis - Blue Star - Beast - Bobcat - Northstar,United States,Nevada,40.952,-116.352,"gold, silver",Hydrothermal,Sediment-hosted gold deposit,26a.1,Sediment-hosted Au,,Long and others (1998); Bettles (2002)
565,"Getchell (Getchell, Turquoise Ridge, North Zone)",United States,Nevada,41.21,-117.26,"gold, silver",Hydrothermal,Sediment-hosted gold deposit,26a.1,Sediment-hosted Au,,Long and others (1998); Placer Dome (2002b)
566,Gold Quarry South Layback (Maggie Creek district),United States,Nevada,40.825,-116.225,"gold, silver",Hydrothermal,Sediment-hosted gold deposit,26a.1,Sediment-hosted Au,,Long and others (1998); Newmont (2003)
567,"Jerritt Canyon (Burns Basin, Enfield Bell, Pattani Springs)",United States,Nevada,41.34,-116.01,"gold, silver",Hydrothermal,Sediment-hosted gold deposit,26a.1,Sediment-hosted Au,,Long and others (1998)
568,"Leeville (West Leeville, Four Corners, Turf)",United States,Nevada,40.93,-116.32,"gold, silver",Hydrothermal,Sediment-hosted gold deposit,26a.1,Sediment-hosted Au,,Long and others (1998); Newmont (2003)
569,"Meikle (Purple Vein) (Meikle, South Meikle, Griffin, and Rodeo)",United States,Nevada,41.01,-116.36,"gold, silver",Hydrothermal,Sediment-hosted gold deposit,26a.1,Sediment-hosted Au,,Long and others (1998); Bettles (2002)
570,Twin Creeks (Chimney Creek and Rabbit Creek),United States,Nevada,41.28,-117.17,"gold, silver",Hydrothermal,Sediment-hosted gold deposit,26a.1,Sediment-hosted Au,,Long and others (1998)
571,Goodsprings,United States,Nevada,35.85,-115.5,"gold, silver, zinc, lead",Hydrothermal,Polymetallic replacement deposit,19a,Polymetallic replacement,,Long and others (1998)
572,Pride of the Mountains,United States,Washington,47.981,-121.369,"gold, silver, zinc, lead, copper",Hydrothermal,Polymetallic veins,22c,Polymetallic veins,,Long and others (1998)
573,Dragon Mine,United States,Utah,39.918,-112.104,halloysite (clay mineral with tube-like crystals),Hydrothermal,Hydrothermal kaolin (halloysite) deposit,25l.2,Hydrothermal kaolin,,Industrial Minerals (2004a)
574,Hector,United States,California,34.755,-116.431,hectorite (lithium-rich clay mineral),Hydrothermal,Hydrothermal lithium-rich clay deposit,25l.3,Lithium -rich clays,,Harben and Kuè?vart (1996)
575,Montana Mountains,United States,Nevada,41.767,-118.108,hectorite (lithium-rich clay mineral),Hydrothermal,Hydrothermal lithium-rich clay deposit,25l.3,Lithium -rich clays,,Odom (1992)
576,Eagle Mountain,United States,California,33.883,-115.542,iron,Hydrothermal,Iron skarn deposit,18d,Skarn Fe,,Singer and others (1993)
577,Iron Springs,United States,Utah,37.683,-113.25,iron,Hydrothermal,Iron skarn deposit,18d,Skarn Fe,,Singer and others (1993)
578,Benson,United States,New York,44.179,-75.006,iron,Hydrothermal,Magnetite deposits in volcanic rocks,25i,Volcanic-hosted magnetite,,Singer and others (1993)
579,Pea Ridge,United States,Missouri,38.125,-91.042,iron,Hydrothermal,Magnetite deposits in volcanic rocks,25i,Volcanic-hosted magnetite,,Singer and others (1993)
580,Burkesville,United States,Kentucky,36.775,-85.335,"lead, zinc",Hydrothermal,Mississippi Valley-type deposit (MVT),32b,"Mississippi Valley, Appalachian Zn",,Long and others (1998)
581,"Tri - state (Galena, Joplin, Picher)",United States,"Kansas, Missouri, Oklahoma",37.083,-94.65,"lead, zinc",Hydrothermal,Mississippi Valley-type deposit (MVT),32a,"Mississippi Valley, S.E. Missouri Pb-Zn",,Long and others (1998)
582,Star - Morning,United States,Idaho,47.468,-115.812,"lead, zinc, silver",Hydrothermal,Coeur d' Alene-type polymetallic vein,unassigned,"Coeur d' Alene-type polymetallic vein, Revett-St. Regis subtype",,Long and others (1998)
583,Old Lead Belt,United States,Missouri,37.842,-90.534,"lead, zinc, silver",Hydrothermal,Mississippi Valley-type deposit (MVT),32a,"Mississippi Valley, S.E. Missouri Pb-Zn",,Long and others (1998)
584,Viburnum Trend,United States,Missouri,37.583,-91.167,"lead, zinc, silver, copper",Hydrothermal,Mississippi Valley-type deposit (MVT),32a,"Mississippi Valley, S.E. Missouri Pb-Zn",,Long and others (1998)
585,Big Ben - Niehart,United States,Montana,46.95,-110.733,molybdenum,Hydrothermal,Climax-type molybdenum deposit,16,Climax Mo,,Mutschler and others (1999)
586,Cave Peak,United States,Texas,31.433,-104.883,molybdenum,Hydrothermal,Climax-type molybdenum deposit,16,Climax Mo,,Mutschler and others (1999)
587,Climax,United States,Colorado,39.367,-106.167,molybdenum,Hydrothermal,Climax-type molybdenum deposit,16,Climax Mo,,Mutschler and others (1999)
588,Henderson - Urad,United States,Colorado,39.75,-105.833,molybdenum,Hydrothermal,Climax-type molybdenum deposit,16,Climax Mo,,Mutschler and others (1999)
589,Mount Emmons - Redwell Basin,United States,Colorado,38.883,-107.067,molybdenum,Hydrothermal,Climax-type molybdenum deposit,16,Climax Mo,,Mutschler and others (1999)
590,Mount Hope,United States,Nevada,39.783,-116.167,molybdenum,Hydrothermal,Climax-type molybdenum deposit,16,Climax Mo,,Mutschler and others (1999)
591,Pine Grove,United States,Utah,38.336,-113.606,molybdenum,Hydrothermal,Climax-type molybdenum deposit,16,Climax Mo,,Singer and others (1993)
592,Quartz Hill,United States,Alaska,55.4,-130.467,molybdenum,Hydrothermal,Climax-type molybdenum deposit,16,Climax Mo,,Mutschler and others (1999); Singer and others (1993)
593,Questa,United States,New Mexico,36.683,-105.5,molybdenum,Hydrothermal,Climax-type molybdenum deposit,16,Climax Mo,,Mutschler and others (1999)
594,Thompson Creek,United States,Idaho,44.333,-114.583,molybdenum,Hydrothermal,Porphyry molybdenum deposit,21b,"Porphyry Mo, Low-F",,Mutschler and others (1999)
595,Buckingham,United States,Nevada,40.617,-117.075,"molybdenum, copper",Hydrothermal,Porphyry molybdenum deposit,21b,"Porphyry Mo, Low-F",,Long and others (1998)
596,Cumo,United States,Idaho,44,-115.783,"molybdenum, copper",Hydrothermal,Porphyry molybdenum deposit,21b,"Porphyry Mo, Low-F",,Mutschler and others (1999)
597,Mount Tolman,United States,Washington,48.05,-118.7,"molybdenum, copper",Hydrothermal,Porphyry molybdenum deposit,21b,"Porphyry Mo, Low-F",,Mutschler and others (1999)
598,Copper Queen,United States,Arizona,31.43,-109.91,"silver, copper, gold, zinc, lead",Hydrothermal,Polymetallic replacement deposit,19a,Polymetallic replacement,,Long and others (1998)
599,Arctic Camp,United States,Alaska,67.181,-156.386,"silver, copper, zinc",Hydrothermal,Volcanogenic massive sulfide deposit (VMS),28a,"Massive sulfide, Kuroko",,Long and others (1998)
600,Rocky Range,United States,Utah,38.45,-113.063,"silver, gold, copper",Hydrothermal,Copper skarn deposit,18b,"Skarn, Cu",,Long and others (1998)
601,Leadville,United States,Colorado,39.25,-106.25,"silver, gold, lead, zinc, copper",Hydrothermal,Polymetallic replacement deposit,19a,Polymetallic replacement,,Long and others (1998)
602,Greens Creek,United States,Alaska,58.077,-134.619,"silver, gold, zinc, lead",Hydrothermal,Volcanogenic massive sulfide deposit (VMS),28a,"Massive sulfide, Kuroko",,Long and others (1998)
603,Red Mountain - Sneffels - Telluride,United States,Colorado,37.958,-107.75,"silver, gold, zinc, lead, copper",Hydrothermal,Polymetallic veins,22c,Polymetallic veins,,Long and others (1998)
604,Presidio,United States,Texas,29.81,-104.33,"silver, lead",Hydrothermal,Polymetallic replacement deposit,19a,Polymetallic replacement,,Long and others (1998)
605,Bunker Hill - Last Chance,United States,Idaho,47.536,-116.138,"silver, lead, zinc",Hydrothermal,Coeur d' Alene-type polymetallic vein,unassigned,"Coeur d' Alene-type polymetallic vein, Revett-St. Regis subtype",,Long and others (1998)
606,Galena,United States,Idaho,47.477,-115.965,"silver, lead, zinc",Hydrothermal,Coeur d' Alene-type polymetallic vein,unassigned,"Coeur d' Alene-type polymetallic vein, Revett-St. Regis subtype",,Long and others (1998)
607,Lucky Friday,United States,Idaho,47.471,-115.78,"silver, lead, zinc",Hydrothermal,Coeur d' Alene-type polymetallic vein,unassigned,"Coeur d' Alene-type polymetallic vein, Revett-St. Regis subtype",,Long and others (1998)
608,"Creede (Amethyst, Bulldog etc. veins)",United States,Colorado,37.875,-106.933,"silver, lead, zinc",Hydrothermal,Epithermal gold deposit,25b,"Epithermal vein, Creede",,Long and others (1998)
609,Aspen,United States,Colorado,39.167,-106.833,"silver, lead, zinc",Hydrothermal,Polymetallic replacement deposit,19a,Polymetallic replacement,,Long and others (1998)
610,Sunshine,United States,Idaho,47.501,-116.068,"silver, lead, zinc, copper",Hydrothermal,Coeur d' Alene-type polymetallic vein,unassigned,"Coeur d' Alene-type polymetallic vein, Revett-St. Regis subtype",,Long and others (1998)
611,Bingham Canyon (polymetallic replacement),United States,Utah,40.54,-112.14,"silver, lead, zinc, gold, copper",Hydrothermal,Polymetallic replacement deposit,19a,Polymetallic replacement,,Long and others (1998)
612,Park City,United States,Utah,40.62,-111.51,"silver, lead, zinc, gold, copper",Hydrothermal,Polymetallic replacement deposit,19a,Polymetallic replacement,,Long and others (1998)
613,Tintic - East Tintic,United States,Utah,39.91,-112.1,"silver, lead, zinc, gold, copper",Hydrothermal,Polymetallic replacement deposit,19a,Polymetallic replacement,,Long and others (1998)
614,Crandon,United States,Wisconsin,45.483,-88.926,"silver, zinc, gold, copper, lead",Hydrothermal,Volcanogenic massive sulfide deposit (VMS),28a,"Massive sulfide, Kuroko",,Long and others (1998)
615,Beaverhead,United States,Montana,45.224,-112.301,talc,Hydrothermal,Hydrothermal talc deposit,18m,Metasomatic and metamorphic replacement talc,,Spanski (2004)
616,Regal (Keystone),United States,Montana,45.172,-112.425,talc,Hydrothermal,Hydrothermal talc deposit,18m,Metasomatic and metamorphic replacement talc,,Spanski (2004)
617,"Treasure (Treasure State, Treasure Chest",United States,Montana,45.228,-112.309,talc,Hydrothermal,Hydrothermal talc deposit,18m,Metasomatic and metamorphic replacement talc,,Spanski (2004)
618,"Yellowstone (Johnny Gulch, Cyprus, Cameron, Montana Talc)",United States,Montana,45.077,-111.73,talc,Hydrothermal,Hydrothermal talc deposit,18m,Metasomatic and metamorphic replacement talc,,Spanski (2004)
619,Franklin,United States,New Jersey,41.12,-74.59,zinc,Hydrothermal,Sedimentary exhalative zinc-lead deposit,31a,Sedimentary exhalative Zn-Pb,,Long and others (1998)
620,Sterling Hill,United States,New Jersey,41.08,-74.6,zinc,Hydrothermal,Sedimentary exhalative zinc-lead deposit,31a,Sedimentary exhalative Zn-Pb?,,Long and others (1998)
621,Fountain Run,United States,Kentucky,36.704,-85.943,"zinc, lead",Hydrothermal,Mississippi Valley-type deposit (MVT),32b,"Mississippi Valley, Appalachian Zn",,Long and others (1998)
622,Mascot - Jefferson City,United States,Tennessee,36.4,-83.35,"zinc, lead",Hydrothermal,Mississippi Valley-type deposit (MVT),32b,"Mississippi Valley, Appalachian Zn",,Long and others (1998)
623,"Pierrepont, Edwards, and Balmat",United States,New York,44.252,-75.4,"zinc, lead",Hydrothermal,Sedimentary exhalative zinc-lead deposit,31a,Sedimentary exhalative Zn-Pb,,Long and others (1998)
624,Lik - Su,United States,Alaska,68.167,-163.2,"zinc, lead, silver",Hydrothermal,Sedimentary exhalative zinc-lead deposit,31a,Sedimentary exhalative Zn-Pb,,Long and others (1998)
625,Red Dog,United States,Alaska,68.067,-162.824,"zinc, lead, silver",Hydrothermal,Sedimentary exhalative zinc-lead deposit,31a,Sedimentary exhalative Zn-Pb,,Long and others (1998)
626,Gilman,United States,Colorado,39.533,-106.376,"zinc, silver, copper, lead",Hydrothermal,Lead-zinc skarn deposit,18c,Skarn Zn-Pb,,Dawson (1996)
627,Birch Lake,United States,Minnesota,47.817,-91.733,copper,Igneous,Magmatic copper-nickel deposit near base of mafic igneous intrusion,5a,Duluth Cu-Ni-PGE,,Long and others (1998)
628,Babbit (Minnamax) - Mesaba project,United States,Minnesota,47.641,-91.883,"copper, nickel, PGE",Igneous,Magmatic copper-nickel deposit near base of mafic igneous intrusion,5a,Duluth Cu-Ni-PGE,,"Long and others (1998); Miller, Severson, and others (2002)"
629,Dunka Road - Northmet project,United States,Minnesota,47.61,-91.96,"copper, nickel, PGE",Igneous,Magmatic copper-nickel deposit near base of mafic igneous intrusion,5a,Duluth Cu-Ni-PGE,,Long and others (1998); Cannon and others (1997)
630,Maturi,United States,Minnesota,47.801,-91.756,"copper, nickel, PGE",Igneous,Magmatic copper-nickel deposit near base of mafic igneous intrusion,5a,Duluth Cu-Ni-PGE,,"Long and others (1998); Miller, Severson, and others (2002)"
631,Bessemer City,United States,South Carolina,35.333,-81.167,lithium,Igneous,Pegmatite,13b,Li pegmatites,,Anstett and others (1990)
632,Kings Mountain,United States,North Carolina,35.25,-81.342,lithium mica,Igneous,Pegmatite rich in lithium,13b,Li pegmatites,,Harben and Kuè?vart (1996)
633,Black Canyon,United States,Arizona,34.12,-112.21,"mica,feldspathic sand",Igneous,Pegmatite rich in mica,13f,Mica pegmatites,,Industrial Minerals (1999c); Industrial Minerals (2002)
634,Wind Mountain,United States,New Mexico,32.025,-105.515,nepheline syenite,Igneous,Igneous rock rich in nepheline,na,no model,,Industrial Minerals (1995)
635,McClure Mountain Complex,United States,Colorado,38.35,-105.467,niobium,Igneous,Mineralization associated with carbonatite igneous complex,10,carbonatite,,Crockett and Sutphin (1993)
636,"Iron Hill (Powderhorn, Cebolla Creek)",United States,Colorado,38.25,-107.05,"niobium, rare earth elements, barium, fluorite, phosphorus, titanium",Igneous,Mineralization associated with carbonatite/alkalic igneous complex,10,carbonatite,,Woolley (1987)
637,Deep Creek,United States,Oregon,42.05,-119.95,"niobium, rare earth elements, phosphorus, fluorine, strontium",Igneous,Mineralization associated with carbonatite igneous complex,10,carbonatite,,Woolley (1987)
638,J - M Reef - East Boulder mine,United States,Montana,45.403,-110.007,"palladium, platinum",Igneous,Reef-type PGE deposit,2b,Merensky Reef PGE,,Spanski (2004); Zientek and others (2002)
639,J - M Reef - Stillwater mine,United States,Montana,45.389,-109.874,"palladium, platinum",Igneous,Reef-type PGE deposit,2b,Merensky Reef PGE,,Spanski (2004); Zientek and others (2002)
640,Gem Park,United States,Colorado,38.267,-105.55,"phosphorus, niobium, vermiculite, rare earth elements, thorium, copper, barium",Igneous,Mineralization associated with carbonatite/alkalic igneous complex,10,carbonatite,,Woolley (1987)
641,Mountain Pass,United States,California,35.483,-115.533,"rare earth elements, barium",Igneous,Mineralization associated with carbonatite igneous complex,10,carbonatite,,Woolley (1987)
642,Hicks Dome,United States,Illinois,37.6,-88.4,"rare earth elements, fluorite",Igneous,Mineralization associated with carbonatite igneous complex,10,carbonatite,,Jackson and Christiansen (1993)
643,Bear Lodge Mountains (southern),United States,Wyoming,44.483,-104.45,"rare earth elements, thorium",Igneous,Mineralization associated with carbonatite igneous complex,10,carbonatite,,Woolley (1987)
644,Tucker - Poplar Lake deposit,United States,Minnesota,48.167,-90.667,"titanium, magnetite",Igneous,Layers of ilmentite and titanomagnetite in ferrogabbroic and anothositic rocks,3,Bushveld Fe-Ti-V,,Towner and others (1988)
645,Hamilton,United States,Montana,46.262,-113.888,vermiculite,Igneous,Vermiculite associated with ultramafic igneous rocks,na,no model,,Industrial Minerals (1999a)
646,"Zonolite (Rainy Creek, Vermiculite Mountain, Libby)",United States,Montana,48.434,-115.406,vermiculite,Igneous,Vermiculite associated with ultramafic igneous rocks,na,no model,,Spanski (2004)
647,Eagle (Slate Creek),United States,Alaska,64.567,-142.5,asbestos,Metamorphic,Asbestos in metamorphosed ultramafic igneous rock,8d,Serpentine-hosted asbestos,,Foster (1969)
648,Gore Mountain,United States,New York,43.679,-74.054,garnet,Metamorphic,Garnet in metamorphosed igneous rocks,na,no model,,Harben and Kuè?vart (1996); New York State Department of Environmental Conservation (undated)
649,Ruby Mountain Quarry,United States,New York,43.736,-74.112,garnet,Metamorphic,Garnet in metamorphosed igneous rocks,na,no model,,New York State Department of Environmental Conservation (undated)
650,Addie (Smoky Mtns.),United States,North Carolina,35.399,-83.159,olivine,Metamorphic,Dunite,na,no model,,Harben and Kuè?vart (1996)
651,Twin Sisters Mountain (Cascade Mtns.),United States,Washington,48.708,-121.958,olivine,Metamorphic,Dunite,na,no model,,Harben and Kuè?vart (1996)
652,Hunter Mountain,United States,California,36.533,-117.517,wollastonite,Metamorphic,Wollastonite in metamorphosed sedimentary rocks,18g,Skarn wollastonite,,Bauer and others (1994)
653,Oak Hill Mine Site,United States,New York,44.304,-73.58,wollastonite,Metamorphic,Wollastonite in metamorphosed sedimentary rocks,18g,Skarn wollastonite,,"New York State Department of Environmental Conservation, (undated); Bauer and others (1994)"
654,Willsboro Mine (Fox Knoll Mine),United States,New York,44.346,-73.432,"wollastonite, garnet",Metamorphic,Wollastonite in metamorphosed sedimentary rocks,18g,Skarn wollastonite,,New York State Department of Environmental Conservation (undated); Harben and Kuè?vart (1996)
655,Meigs - Attapulgus - Quincy district,United States,"Georgia, Florida",30.667,-84.417,"attapulgite (palygorskite, fuller's earth)",Sedimentary,,34e,Palygorskite,,Harben and Kuè?vart (1996); Hosterman and Patterson (1992)
656,Argenta,United States,Nevada,40.633,-116.733,barite,Sedimentary,Marine exhalative deposit -barite,31b,Bedded barite,,Orris (1985); Papke (1984)
657,Greystone,United States,Nevada,40.281,-116.901,barite,Sedimentary,Marine exhalative deposit -barite,31b,Bedded barite,,Orris (1985); Papke (1984)
658,Mountain Springs,United States,Nevada,40.315,-117.041,barite,Sedimentary,Marine exhalative deposit -barite,31b,Bedded barite,,Orris (1985); Papke (1984)
659,Rossi,United States,Nevada,40.599,-116.719,barite,Sedimentary,Marine exhalative deposit -barite,31b,Bedded barite,,Orris (1985); Industrial Minerals (1992)
660,Snoose Creek,United States,Nevada,41.502,-115.039,barite,Sedimentary,Marine exhalative deposit -barite,31b,Bedded barite,,Harben and Kuè?vart (1996)
661,Stormy Creek,United States,Nevada,41.523,-115.198,barite,Sedimentary,Marine exhalative deposit -barite,31b,Bedded barite,,Harben and Kuè?vart (1996)
662,Basalt,United States,Nevada,38.011,-118.219,diatomite,Sedimentary,Lacustrine biogenic deposit - diatomite,31s,Lacustrine diatomite,,Taylor (2004)
663,Burney,United States,California,41.033,-121.683,diatomite,Sedimentary,Lacustrine biogenic deposit - diatomite,31s,Lacustrine diatomite,,Taylor (2004)
664,Fernley,United States,Nevada,39.6,-119.25,diatomite,Sedimentary,Lacustrine biogenic deposit - diatomite,31s,Lacustrine diatomite,,Taylor (2004)
665,Lovelock,United States,Nevada,40.267,-118.797,diatomite,Sedimentary,Lacustrine biogenic deposit - diatomite,31s,Lacustrine diatomite,,Taylor (2004)
666,Vale,United States,Oregon,,,diatomite,Sedimentary,Lacustrine biogenic deposit - diatomite,31s,Lacustrine diatomite,,Taylor (2004)
667,Lompoc,United States,California,34.582,-120.345,diatomite,Sedimentary,Marine biogenic deposit - diatomite,na,no model,,Taylor (2004)
668,Black River Falls,United States,Wisconsin,44.293,-90.725,iron,Sedimentary,Banded iron formation,34a,Superior Fe,,Cannon and others (1997)
669,Gogebic Range - Eureka - Asteroid Mine,United States,Michigan,46.476,-89.984,iron,Sedimentary,Banded iron formation,34a,Superior Fe,,Cannon and others (1997)
670,Gogebic Range - Plymouth Mine,United States,Michigan,46.47,-89.957,iron,Sedimentary,Banded iron formation,34a,Superior Fe,,Cannon and others (1997)
671,Gogebic Range - Sunday Lake Group Mines,United States,Michigan,46.483,-89.92,iron,Sedimentary,Banded iron formation,34a,Superior Fe,,Cannon and others (1997)
672,Gogebic Range - Wakefield Mine,United States,Michigan,46.469,-89.951,iron,Sedimentary,Banded iron formation,34a,Superior Fe,,Cannon and others (1997)
673,Gogebic Range - West Gogebic Taconite Deposit,United States,Wisconsin,46.297,-90.653,iron,Sedimentary,Banded iron formation,34a,Superior Fe,,Cannon and others (1997)
674,Marquette Range - Empire Mine,United States,Michigan,46.461,-87.597,iron,Sedimentary,Banded iron formation,34a,Superior Fe,,Cannon and others (1997)
675,Marquette Range - Tilden Mine,United States,Michigan,46.447,-87.642,iron,Sedimentary,Banded iron formation,34a,Superior Fe,,Cannon and others (1997)
676,Menominee Range - Buck Mine,United States,Michigan,46.059,-88.618,iron,Sedimentary,Banded iron formation,34a,Superior Fe,,Cannon and others (1997)
677,Menominee Range - Cannon Mine,United States,Michigan,46.077,-88.615,iron,Sedimentary,Banded iron formation,34a,Superior Fe,,Cannon and others (1997)
678,Menominee Range - Groveland Mine,United States,Michigan,45.993,-87.981,iron,Sedimentary,Banded iron formation,34a,Superior Fe,,Cannon and others (1997)
679,Menominee Range - Hiawatha Mine #1,United States,Michigan,46.075,-88.645,iron,Sedimentary,Banded iron formation,34a,Superior Fe,,Cannon and others (1997)
680,Menominee Range - Homer Mine,United States,Michigan,46.116,-88.657,iron,Sedimentary,Banded iron formation,34a,Superior Fe,,Cannon and others (1997)
681,Menominee Range - Iron River - Sherwood Mine,United States,Michigan,46.112,-88.641,iron,Sedimentary,Banded iron formation,34a,Superior Fe,,Cannon and others (1997)
682,Menominee Range - Wauseca - Aronson Mine (Konwinski),United States,Michigan,46.111,-88.647,iron,Sedimentary,Banded iron formation,34a,Superior Fe,,Cannon and others (1997)
683,Mesabi Range - Gross - Nelson Mine,United States,Minnesota,47.478,-92.564,iron,Sedimentary,Banded iron formation,34a,Superior Fe,,Cannon and others (1997)
684,Mesabi Range - Hibbing Taconite,United States,Minnesota,47.46,-92.958,iron,Sedimentary,Banded iron formation,34a,Superior Fe,,Cannon and others (1997)
685,Mesabi Range - Mckinley Mine,United States,Minnesota,47.522,-92.4,iron,Sedimentary,Banded iron formation,34a,Superior Fe,,Cannon and others (1997)
686,Mesabi Range - Minntac Mine,United States,Minnesota,47.545,-92.654,iron,Sedimentary,Banded iron formation,34a,Superior Fe,,Cannon and others (1997)
687,Mesabi Range - Minorca Mine,United States,Minnesota,47.543,-92.519,iron,Sedimentary,Banded iron formation,34a,Superior Fe,,Cannon and others (1997)
688,Mesabi Range - National Steel Pellet Plant Mine,United States,Minnesota,47.423,-93.069,iron,Sedimentary,Banded iron formation,34a,Superior Fe,,Cannon and others (1997)
689,Mesabi Range - Peter Mitchell Mine,United States,Minnesota,47.666,-91.917,iron,Sedimentary,Banded iron formation,34a,Superior Fe,,Cannon and others (1997)
690,Mesabi Range - Plummer Mine,United States,Minnesota,47.321,-93.396,iron,Sedimentary,Banded iron formation,34a,Superior Fe,,Cannon and others (1997)
691,Mesabi Range - Rana Mine,United States,Minnesota,47.52,-92.744,iron,Sedimentary,Banded iron formation,34a,Superior Fe,,Cannon and others (1997)
692,Mesabi Range - Rouchleau Mine,United States,Minnesota,47.511,-92.523,iron,Sedimentary,Banded iron formation,34a,Superior Fe,,Cannon and others (1997)
693,Mesabi Range - Sherman Mine,United States,Minnesota,47.483,-92.831,iron,Sedimentary,Banded iron formation,34a,Superior Fe,,Cannon and others (1997)
694,Mesabi Range - Thunderbird Mine,United States,Minnesota,47.482,-92.548,iron,Sedimentary,Banded iron formation,34a,Superior Fe,,Cannon and others (1997)
695,Mesabi Range - Whitney Mine,United States,Minnesota,47.448,-92.91,iron,Sedimentary,Banded iron formation,34a,Superior Fe,,Cannon and others (1997)
696,Mesabi Range - Wyoming Mine,United States,Minnesota,47.531,-92.507,iron,Sedimentary,Banded iron formation,34a,Superior Fe,,Cannon and others (1997)
697,Atlantic coastal plain phosphate province,United States,Florida,27.888,-82.036,phosphate rock,Sedimentary,Marine biogenic-chemical sediment - phosphate rock,34d,"Phosphate, warm current type",,Van Kauwenbergh and others (1990)
698,"Atlantic coastal plain phosphate province, Blake Plateau/Charleston Bump",United States,South Carolina,31.5,-79,phosphate rock,Sedimentary,Marine biogenic-chemical sediment - phosphate rock,34d,"Phosphate, warm current type",,Riggs (1989)
699,"Atlantic coastal plain phosphate province, Charleston - Beaufort District",United States,South Carolina,32.75,-80,phosphate rock,Sedimentary,Marine biogenic-chemical sediment - phosphate rock,34d,"Phosphate, warm current type",,British Sulphur Corporation (1964)
700,"Atlantic coastal plain phosphate province, East Florida phosphate district",United States,Florida,27.8,-80.781,phosphate rock,Sedimentary,Marine biogenic-chemical sediment - phosphate rock,34d,"Phosphate, warm current type",,
701,"Atlantic coastal plain phosphate province, Gardinier Mine (Cargill Mine)",United States,Florida,27.667,-81.763,phosphate rock,Sedimentary,Marine biogenic-chemical sediment - phosphate rock,34d,"Phosphate, warm current type",,Van Kauwenbergh and others (1990)
702,"Atlantic coastal plain phosphate province, Hopewell",United States,Florida,27.925,-82.106,phosphate rock,Sedimentary,Marine biogenic-chemical sediment - phosphate rock,34d,"Phosphate, warm current type",,Orris and Chernoff (2002);    Chernoff and Orris (2002)
703,"Atlantic coastal plain phosphate province, Land Pebble district, Fort Green",United States,Florida,27.668,-82.007,phosphate rock,Sedimentary,Marine biogenic-chemical sediment - phosphate rock,34d,"Phosphate, warm current type",,Van Kauwenbergh and others (1990)
704,"Atlantic coastal plain phosphate province, Land Pebble district, Fort Meade Mine (Mobil)",United States,Florida,27.766,-81.807,phosphate rock,Sedimentary,Marine biogenic-chemical sediment - phosphate rock,34d,"Phosphate, warm current type",,Van Kauwenbergh and others (1990)
705,"Atlantic coastal plain phosphate province, Land Pebble district, Four Corners",United States,Florida,27.664,-82.091,phosphate rock,Sedimentary,Marine biogenic-chemical sediment - phosphate rock,34d,"Phosphate, warm current type",,Van Kauwenbergh and others (1990)
706,"Atlantic coastal plain phosphate province, Land Pebble district, Haynsworth Mine",United States,Florida,27.758,-82.014,phosphate rock,Sedimentary,Marine biogenic-chemical sediment - phosphate rock,34d,"Phosphate, warm current type",,Van Kauwenbergh and others (1990)
707,"Atlantic coastal plain phosphate province, Land Pebble district, Hookers Prairie",United States,Florida,27.781,-81.939,phosphate rock,Sedimentary,Marine biogenic-chemical sediment - phosphate rock,34d,"Phosphate, warm current type",,Van Kauwenbergh and others (1990)
708,"Atlantic coastal plain phosphate province, Land Pebble district, Payne Creek",United States,Florida,27.69,-81.941,phosphate rock,Sedimentary,Marine biogenic-chemical sediment - phosphate rock,34d,"Phosphate, warm current type",,Jasinski (1998)
709,"Atlantic coastal plain phosphate province, Land Pebble district, Rockland",United States,Florida,27.754,-81.867,phosphate rock,Sedimentary,Marine biogenic-chemical sediment - phosphate rock,34d,"Phosphate, warm current type",,Van Kauwenbergh and others (1990)
710,"Atlantic coastal plain phosphate province, Land Pebble district, Saddle Creek",United States,Florida,28.033,-81.834,phosphate rock,Sedimentary,Marine biogenic-chemical sediment - phosphate rock,34d,"Phosphate, warm current type",,Van Kauwenbergh and others (1990)
711,"Atlantic coastal plain phosphate province, Land Pebble district, Silver City",United States,Florida,27.8,-81.903,phosphate rock,Sedimentary,Marine biogenic-chemical sediment - phosphate rock,34d,"Phosphate, warm current type",,British Sulphur Corporation (1987)
712,"Atlantic coastal plain phosphate province, Land Pebble district, South Fort Meade",United States,Florida,27.667,-81.763,phosphate rock,Sedimentary,Marine biogenic-chemical sediment - phosphate rock,34d,"Phosphate, warm current type",,Griffiths (1995)
713,"Atlantic coastal plain phosphate province, Noranda",United States,Florida,,,phosphate rock,Sedimentary,Marine biogenic-chemical sediment - phosphate rock,34d,"Phosphate, warm current type",,Van Kauwenbergh and McClellan (1990)
714,"Atlantic coastal plain phosphate province, North Carolina district, Lee Creek Mine",United States,North Carolina,35.384,-76.794,phosphate rock,Sedimentary,Marine biogenic-chemical sediment - phosphate rock,34d,"Phosphate, warm current type",,Van Kauwenbergh and McClellan (1990)
715,"Atlantic coastal plain phosphate province, North Carolina district, North Carolina Phosphate Corp.",United States,North Carolina,35.333,-76.771,phosphate rock,Sedimentary,Marine biogenic-chemical sediment - phosphate rock,34d,"Phosphate, warm current type",,Riggs (1989)
716,"Atlantic coastal plain phosphate province, North Florida - South Georgia district, Swift Creek Mine",United States,Florida; Georgia,30.452,-82.857,phosphate rock,Sedimentary,Marine biogenic-chemical sediment - phosphate rock,34d,"Phosphate, warm current type",,Van Kauwenbergh and others (1990)
717,"Atlantic coastal plain phosphate province, Ona",United States,Florida,27.52,-81.98,phosphate rock,Sedimentary,Marine biogenic-chemical sediment - phosphate rock,34d,"Phosphate, warm current type",,Jasinski (2000)
718,"Atlantic coastal plain phosphate province, Onslow Embayment/Frying Pan Phosphate District",United States,North Carolina,33.75,-77.5,phosphate rock,Sedimentary,Marine biogenic-chemical sediment - phosphate rock,34d,"Phosphate, warm current type",,Riggs (1989)
719,"Atlantic coastal plain phosphate province, Onslow Embayment/Northeast Onslow Bay District",United States,North Carolina,34.5,-76.75,phosphate rock,Sedimentary,Marine biogenic-chemical sediment - phosphate rock,34d,"Phosphate, warm current type",,Riggs (1989)
720,"Atlantic coastal plain phosphate province, Pine Level",United States,Florida,27.25,-81.991,phosphate rock,Sedimentary,Marine biogenic-chemical sediment - phosphate rock,34d,"Phosphate, warm current type",,Jasinski (2000)
721,"Atlantic coastal plain phosphate province, Raine",United States,Florida,27.725,-81.811,phosphate rock,Sedimentary,Marine biogenic-chemical sediment - phosphate rock,34d,"Phosphate, warm current type",,Van Kauwenbergh and others (1990)
722,"Atlantic coastal plain phosphate province, Savannah District",United States,Georgia,32.05,-81.083,phosphate rock,Sedimentary,Marine biogenic-chemical sediment - phosphate rock,34d,"Phosphate, warm current type",,British Sulphur Corporation (1964)
723,"Atlantic coastal plain phosphate province, South Florida phosphate district",United States,Florida,27.519,-82.208,phosphate rock,Sedimentary,Marine biogenic-chemical sediment - phosphate rock,34d,"Phosphate, warm current type",,McFaul and others (2000)
724,"Atlantic coastal plain phosphate province, Suwanee River Mine",United States,Florida; Georgia,30.437,-82.777,phosphate rock,Sedimentary,Marine biogenic-chemical sediment - phosphate rock,34d,"Phosphate, warm current type",,Van Kauwenbergh and others (1990)
725,Aurora District,United States,North Carolina,35.5,-76.5,phosphate rock,Sedimentary,Marine biogenic-chemical sediment - phosphate rock,34d,"Phosphate, warm current type",,Griffiths (1995)
726,Lisburne Group,United States,Alaska,68.633,-155.75,phosphate rock,Sedimentary,Marine biogenic-chemical sediment - phosphate rock,,,,Cathcart and others (1984)
727,"Western Phosphate Field, Uinta Mountains, Park City Formation, Vernal",United States,Utah,40.607,-109.491,phosphate rock,Sedimentary,Marine biogenic-chemical sediment - phosphate rock,34c,"Phosphate, upwelling type",,Jasinski (2000)
728,"Atlantic coastal plain phosphate province, Bronson (East Ocala Hard Rock) District",United States,Florida,29.333,-82.5,phosphate rock,Sedimentary,Marine biogenic-chemical sediment - phosphate rock; residual enrichment,34d,"Phosphate, warm current type",,British Sulphur Corporation (1964)
729,"Atlantic coastal plain phosphate province, Ridgeland Basin - Beaufort District",United States,South Carolina,32.583,-80.917,phosphate rock,Sedimentary,Marine biogenic-chemical sediment - phosphate rock; residual enrichment,34d,"Phosphate, warm current type",,British Sulphur Corporation (1964)
730,"Atlantic coastal plain phosphate province, Steinhatchee (N. Ocala Hard Rock) District",United States,Florida,29.9,-83.317,phosphate rock,Sedimentary,Marine biogenic-chemical sediment - phosphate rock; residual enrichment,34d,"Phosphate, warm current type",,Foose (1993)
731,"Western Phosphate Field, Phosphoria Formation, Conda",United States,Idaho,42.728,-111.527,phosphate rock,Sedimentary,Marine biogenic-chemical sediment - phosphate rock; residual enrichment,34c,"Phosphate, upwelling type",,McFaul and others (2000)
732,"Western Phosphate Field, Phosphoria Formation, Deseret Basin - - Laketown",United States,Utah,41.827,-111.29,phosphate rock,Sedimentary,Marine biogenic-chemical sediment - phosphate rock; residual enrichment,34c,"Phosphate, upwelling type",,McFaul and others (2000)
733,"Western Phosphate Field, Phosphoria Formation, Enoch Valley",United States,Idaho,42.881,-111.407,phosphate rock,Sedimentary,Marine biogenic-chemical sediment - phosphate rock; residual enrichment,34c,"Phosphate, upwelling type",,Jasinski (1998); Jasinski (2000)
734,"Western Phosphate Field, Phosphoria Formation, Montana phosphate district",United States,Montana,45.041,-111.957,phosphate rock,Sedimentary,Marine biogenic-chemical sediment - phosphate rock; residual enrichment,34c,"Phosphate, upwelling type",,McFaul and others (2000)
735,"Western Phosphate Field, Phosphoria Formation, Smoky Canyon",United States,Idaho,42.67,-111.13,phosphate rock,Sedimentary,Marine biogenic-chemical sediment - phosphate rock; residual enrichment,34c,"Phosphate, upwelling type",,Jasinski (1998)
736,Amargosa Valley,United States,Nevada,36.45,-116.433,"sepiolite, bentonite, saponite, hectorite",Sedimentary,Altered volcanic ash beds,na,no model,,Harben and Kuè?vart (1996)
737,Hardin district,United States,Wyoming,44.58,-108.17,sodium-bentonite,Sedimentary,Altered volcanic ash beds,28e.1,"Sedimentary bentonite, sodium",,Harben and Kuè?vart (1996)
738,Northern Black Hills district,United States,"Wyoming, South Dakota",44.58,-108.17,sodium-bentonite,Sedimentary,Altered volcanic ash beds,28e.1,"Sedimentary bentonite, sodium",,Harben and Kuè?vart (1996)
739,Sublette Range (combined),United States,Wyoming,42.2,-110.983,"vanadium, phosphate rock",Sedimentary,Marine biogenic-chemical sediment - banasium-rich phosphate rock,,,,British Sulphur Corporation (1987)
740,Ash Meadows,United States,California,35.95,-116.25,zeolite,Sedimentary,Lacustrine deposit - zeolite,25o.2,"Sedimentary zeolites: Zeolites in tuffs of saline, alkaline-lake deposits",,Holmes (1994)
741,Bear River,United States,Idaho,42.424,-111.381,zeolite,Sedimentary,Lacustrine deposit - zeolite,25o.2,"Sedimentary zeolites: Zeolites in tuffs of saline, alkaline-lake deposits",,Industrial Minerals (2004b)
742,Bowie,United States,Arizona,32.45,-109.367,zeolite,Sedimentary,Lacustrine deposit - zeolite,25o.2,"Sedimentary zeolites: Zeolites in tuffs of saline, alkaline-lake deposits",,"Eyde and Eyde, 1987"
743,Harney Lake,United States,Oregon,43.228,-118.943,zeolite,Sedimentary,Lacustrine deposit - zeolite,25o.2,"Sedimentary zeolites: Zeolites in tuffs of saline, alkaline-lake deposits",,Holmes (1994)
744,Atlas,United States,Utah,38.337,-113.141,halloysite (clay mineral with tube-like crystals),Surficial,Sedimentary kaolin (halloysite) deposit,na,no model,,Industrial Minerals (2004a)
745,Aiken district,United States,South Carolina,33.642,-81.628,kaolin,Surficial,Laterites developed on sedimentary deposits; sedimentary deposits derived from laterites,31k,Sedimentary kaolin,,Harben and Kuè?vart (1996)
746,Andersonville district,United States,Georgia,32.2,-84.133,kaolin,Surficial,Laterites developed on sedimentary deposits; sedimentary deposits derived from laterites,31k,Sedimentary kaolin,,Harben and Kuè?vart (1996)
747,Augusta district,United States,Georgia,33.467,-81.967,kaolin,Surficial,Laterites developed on sedimentary deposits; sedimentary deposits derived from laterites,31k,Sedimentary kaolin,,Harben and Kuè?vart (1996)
748,Macon district,United States,Georgia,32.833,-83.633,kaolin,Surficial,Laterites developed on sedimentary deposits; sedimentary deposits derived from laterites,31k,Sedimentary kaolin,,Harben and Kuè?vart (1996)
749,Wrens district,United States,Georgia,33.182,-82.675,kaolin,Surficial,Laterites developed on sedimentary deposits; sedimentary deposits derived from laterites,31k,Sedimentary kaolin,,Harben and Kuè?vart (1996)
750,Eufaula district,United States,Alabama,31.754,-85.272,"kaolin, bauxite",Surficial,Laterites developed on sedimentary deposits; sedimentary deposits derived from laterites,31k,Sedimentary kaolin,,Harben and Kuè?vart (1996)
751,Irwinton district,United States,Georgia,32.812,-83.174,"kaolin, bauxite",Surficial,Laterites developed on sedimentary deposits; sedimentary deposits derived from laterites,31k,Sedimentary kaolin,,Harben and Kuè?vart (1996)
752,Brown - rock phosphate district,United States,Tennessee,35.659,-87.185,phosphate rock,Surficial,Marine biogenic-chemical sediment - phosphate rock; residual enrichment,,,,Krauss and others (1984)
753,Anadarko Basin - Weatherford - Clinton district,United States,Oklahoma,35.54,-98.93,anhydrite,Sedimentary,Marine evaporite deposit - anhydrite,,,,Ham and Curtis (1958)
754,Death Valley,United States,California,36.342,-116.684,boron,Sedimentary,Lacustrine evaporite deposit - borate,35b.3,Lacustrine borates,,Harben and Bates (1990); Evans and others (1976)
755,Fort Cady,United States,California,34.754,-116.402,boron,Sedimentary,Lacustrine evaporite deposit - borate,35b.3,Lacustrine borates,,O'Driscoll (1990)
756,"Gerstley I, II",United States,California,36.018,-116.232,boron,Sedimentary,Lacustrine evaporite deposit - borate,35b.3,Lacustrine borates,,Evans and others (1976)
757,Kramer (Boron),United States,California,35.041,-117.687,boron,Sedimentary,Lacustrine evaporite deposit - borate,35b.3,Lacustrine borates,,Roskill Information Services (1993)
758,Rho (Kramer Junction),United States,California,34.767,-117.547,boron,Sedimentary,Lacustrine evaporite deposit - borate,35b.3,Lacustrine borates,,Evans and others (1976)
759,Smackover Formation,United States,Arkansas,33.22,-92.66,bromine,Sedimentary,Bromine in connate water (brine),35a.14,Naturally occurring bromine brines,,Harben and Kuè?vart (1996)
760,Apex,United States,Nevada,36.221,-114.88,gypsum,Sedimentary,Lacustrine evaporite deposit - gypsum,35b.4,Lacustrine gypsum,,Papke (1987)
761,Anadarko Basin - Blaine Formation,United States,Oklahoma,35.925,-98.364,gypsum,Sedimentary,Marine evaporite deposit - gypsum,35a.5,Bedded gypsum: marine evaporite gypsum,,Harben and Bates (1984)
762,Anadarko Basin - Cloud Chief Formation,United States,Oklahoma,34.832,-98.255,gypsum,Sedimentary,Marine evaporite deposit - gypsum,35a.5,Bedded gypsum: marine evaporite gypsum,,Harben and Bates (1984)
763,Fort Dodge area,United States,Iowa,42.493,-94.156,gypsum,Sedimentary,Marine evaporite deposit - gypsum,35a.5,Bedded gypsum: marine evaporite gypsum,,Harben and Kuè?vart (1996)
764,Michigan Basin - Tawas,United States,Michigan,44.263,-83.675,gypsum,Sedimentary,Marine evaporite deposit - gypsum,35a.5,Bedded gypsum: marine evaporite gypsum,,Roskill Information Services (1992)
765,Plaster City,United States,California,33.033,-116.088,gypsum,Sedimentary,Marine evaporite deposit - gypsum,35a.5,Bedded gypsum: marine evaporite gypsum,,Harben and Kuè?vart (1996)
766,White Mesa,United States,New Mexico,35.52,-106.797,gypsum,Sedimentary,Marine evaporite deposit - gypsum,35a.5,Bedded gypsum: marine evaporite gypsum,,Austin and others (1982)
767,Appalachian Basin,United States,"New York, Pennsylvania, Ohio, West Virginia",41.233,-79.533,halite (salt),Sedimentary,Marine evaporite deposit - salt,35a.3,Bedded salt: marine evaporite salt,,Harben and Kuè?vart (1996)
768,Appalachian Basin - Retsoff,United States,New York,42.778,-77.858,halite (salt),Sedimentary,Marine evaporite deposit - salt,35a.3,Bedded salt: marine evaporite salt,,Roskill Information Services (1983); Harben and Kuè?vart (1996)
